$GPGGA,182541.76,,,,,0,00,999.9,,M,,M,,*6C
$GPGSV,3,1,10,25,78,096,,29,58,337,,12,41,123,,21,35,225,*7A
$GPGSV,3,2,10,20,34,144,,31,31,296,,05,31,084,,02,20,044,*7B
$GPGSV,3,3,10,24,03,172,,26,02,315,*78
$GLGSV,3,1,09,75,66,226,,85,46,013,,86,43,290,,74,22,173,*63
$GLGSV,3,2,09,70,17,102,,69,11,048,,84,08,050,,71,02,147,*6B
$GLGSV,3,3,09,87,01,253,*56
$QZGSV,1,1,01,01,06,051,*57
$BDGSV,2,1,06,212,61,345,,205,46,140,,202,30,117,,211,27,276,*69
$BDGSV,2,2,06,209,20,107,,206,19,077,*6D
$GPGSA,A,1,,,,,,,,,,,,,140.0,99.0,99.0*35
$GNGSA,A,1,,,,,,,,,,,,,140.0,99.0,99.0*2B
$GNGSA,A,1,,,,,,,,,,,,,140.0,99.0,99.0*2B
$QZGSA,A,1,,,,,,,,,,,,,140.0,99.0,99.0*29
$IMGSA,A,1,,,,,,,,,,,,,140.0,99.0,99.0*26
$BDGSA,A,1,,,,,,,,,,,,,140.0,99.0,99.0*24
$GPRMC,182541.76,V,,,,,,,030416,,,N*77
$GPGGA,182542.46,,,,,0,00,999.9,,M,,M,,*6C
$GPGSV,3,1,10,02,20,044,28,25,78,096,,29,58,337,,12,41,123,*70
$GPGSV,3,2,10,21,35,225,,20,34,144,,31,31,296,,05,31,084,*7B
$GPGSV,3,3,10,24,03,172,,26,02,315,*78
$GLGSV,3,1,09,75,66,226,,85,46,013,,86,43,290,,74,22,173,*63
$GLGSV,3,2,09,70,17,102,,69,11,048,,84,08,050,,71,02,147,*6B
$GLGSV,3,3,09,87,01,253,*56
$QZGSV,1,1,01,01,06,051,*57
$BDGSV,2,1,06,212,61,345,,205,46,140,,202,30,117,,211,27,276,*69
$BDGSV,2,2,06,209,20,107,,206,19,077,*6D
$GPGSA,A,1,,,,,,,,,,,,,140.0,99.0,99.0*35
$GNGSA,A,1,,,,,,,,,,,,,140.0,99.0,99.0*2B
$GNGSA,A,1,,,,,,,,,,,,,140.0,99.0,99.0*2B
$QZGSA,A,1,,,,,,,,,,,,,140.0,99.0,99.0*29
$IMGSA,A,1,,,,,,,,,,,,,140.0,99.0,99.0*26
$BDGSA,A,1,,,,,,,,,,,,,140.0,99.0,99.0*24
$GPRMC,182542.46,V,,,,,,,030416,,,N*77
$GPGGA,182542.76,,,,,0,00,999.9,,M,,M,,*6F
$GPGSV,3,1,10,25,78,096,36,29,58,337,30,12,41,123,37,21,35,225,25*7F
$GPGSV,3,2,10,20,34,144,34,05,31,084,31,02,20,044,28,31,31,296,*74
$GPGSV,3,3,10,24,03,172,,26,02,315,*78
$GLGSV,3,1,09,75,66,226,32,85,46,013,37,86,43,290,,74,22,173,*66
$GLGSV,3,2,09,70,17,102,,69,11,048,,84,08,050,,71,02,147,*6B
$GLGSV,3,3,09,87,01,253,*56
$QZGSV,1,1,01,01,06,051,*57
$BDGSV,2,1,06,212,61,345,,205,46,140,,202,30,117,,211,27,276,*69
$BDGSV,2,2,06,209,20,107,,206,19,077,*6D
$GPGSA,A,1,,,,,,,,,,,,,140.0,99.0,99.0*35
$GNGSA,A,1,,,,,,,,,,,,,140.0,99.0,99.0*2B
$GNGSA,A,1,,,,,,,,,,,,,140.0,99.0,99.0*2B
$QZGSA,A,1,,,,,,,,,,,,,140.0,99.0,99.0*29
$IMGSA,A,1,,,,,,,,,,,,,140.0,99.0,99.0*26
$BDGSA,A,1,,,,,,,,,,,,,140.0,99.0,99.0*24
$GPRMC,182542.76,V,,,,,,,030416,,,N*74
$GPGGA,182543.75,3206.338283,N,03512.176267,E,1,09,3.2,655.5,M,19.0,M,,*64
$GPGSV,3,1,10,25,78,096,37,29,58,337,31,12,41,123,38,21,35,225,26*73
$GPGSV,3,2,10,20,34,144,34,05,31,084,33,02,20,044,30,31,31,296,*7F
$GPGSV,3,3,10,24,03,172,,26,02,315,*78
$GLGSV,3,1,09,75,66,226,32,85,46,013,37,86,43,290,26,74,22,173,36*67
$GLGSV,3,2,09,70,17,102,,69,11,048,,84,08,050,,71,02,147,*6B
$GLGSV,3,3,09,87,01,253,*56
$QZGSV,1,1,01,01,06,051,*57
$BDGSV,2,1,06,205,46,140,28,202,30,117,30,212,61,345,,211,27,276,*60
$BDGSV,2,2,06,209,20,107,,206,19,077,*6D
$GPGSA,A,3,02,05,12,20,21,25,29,,,,,,2.4,1.2,2.1*3D
$GNGSA,A,3,02,05,12,20,21,25,29,,,,,,2.4,1.2,2.1*23
$GNGSA,A,3,75,85,,,,,,,,,,,2.4,1.2,2.1*25
$QZGSA,A,3,,,,,,,,,,,,,2.4,1.2,2.1*28
$IMGSA,A,3,,,,,,,,,,,,,2.4,1.2,2.1*27
$BDGSA,A,3,,,,,,,,,,,,,2.4,1.2,2.1*25
$GPRMC,182543.75,A,3206.338283,N,03512.176267,E,003.7,120.9,030416,,,A*5B
$GPGGA,182544.75,3206.337846,N,03512.176432,E,1,15,1.6,657.0,M,19.0,M,,*65
$GPGSV,3,1,10,25,78,096,40,29,58,337,36,12,41,123,41,21,35,225,30*7D
$GPGSV,3,2,10,20,34,144,36,31,31,296,24,05,31,084,38,02,20,044,34*74
$GPGSV,3,3,10,24,03,172,,26,02,315,*78
$GLGSV,3,1,09,75,66,226,32,85,46,013,37,86,43,290,28,74,22,173,35*6A
$GLGSV,3,2,09,70,17,102,,69,11,048,,84,08,050,,71,02,147,*6B
$GLGSV,3,3,09,87,01,253,*56
$QZGSV,1,1,01,01,06,051,*57
$BDGSV,2,1,06,212,61,345,32,205,46,140,31,202,30,117,30,211,27,276,*69
$BDGSV,2,2,06,209,20,107,,206,19,077,*6D
$GPGSA,A,3,02,05,12,20,21,25,29,31,,,,,1.9,0.9,1.7*3E
$GNGSA,A,3,02,05,12,20,21,25,29,31,,,,,1.9,0.9,1.7*20
$GNGSA,A,3,74,75,85,86,,,,,,,,,1.9,0.9,1.7*29
$QZGSA,A,3,,,,,,,,,,,,,1.9,0.9,1.7*29
$IMGSA,A,3,,,,,,,,,,,,,1.9,0.9,1.7*26
$BDGSA,A,3,202,205,212,,,,,,,,,,1.9,0.9,1.7*12
$GPRMC,182544.75,A,3206.337846,N,03512.176432,E,000.0,,030416,,,A*76
$GPGGA,182545.75,3206.337230,N,03512.176696,E,1,17,1.6,652.2,M,19.0,M,,*66
$GPGSV,3,1,11,25,78,096,40,29,58,337,36,12,41,123,42,21,35,225,34*7B
$GPGSV,3,2,11,20,34,144,38,05,31,084,38,31,31,296,27,02,20,044,34*78
$GPGSV,3,3,11,04,,,26,24,03,172,,26,02,315,*79
$GLGSV,3,1,09,75,65,226,32,85,46,013,38,86,43,290,28,74,22,173,35*66
$GLGSV,3,2,09,70,17,102,23,69,11,048,,84,08,050,,71,02,147,*6A
$GLGSV,3,3,09,87,01,253,*56
$QZGSV,1,1,01,01,06,051,*57
$BDGSV,2,1,06,212,61,346,32,205,46,140,33,202,30,117,32,211,27,276,*6A
$BDGSV,2,2,06,209,20,107,,206,19,077,*6D
$GPGSA,A,3,02,05,12,20,21,25,26,29,31,,,,2.2,1.0,1.9*34
$GNGSA,A,3,02,05,12,20,21,25,26,29,31,,,,2.2,1.0,1.9*2A
$GNGSA,A,3,70,74,75,85,86,,,,,,,,2.2,1.0,1.9*20
$QZGSA,A,3,,,,,,,,,,,,,2.2,1.0,1.9*27
$IMGSA,A,3,,,,,,,,,,,,,2.2,1.0,1.9*28
$BDGSA,A,3,202,205,212,,,,,,,,,,2.2,1.0,1.9*1C
$GPRMC,182545.75,A,3206.337230,N,03512.176696,E,000.0,,030416,,,A*70
$GPGGA,182546.76,3206.337980,N,03512.178040,E,1,18,0.6,655.1,M,19.0,M,,*6F
$GPGSV,3,1,11,25,78,096,40,29,58,337,36,12,41,123,42,21,35,225,34*7B
$GPGSV,3,2,11,20,34,144,38,05,31,084,40,31,31,296,27,02,20,044,34*77
$GPGSV,3,3,11,04,,,26,24,03,172,,26,02,315,*79
$GLGSV,3,1,09,75,65,226,32,85,46,013,38,86,43,290,28,74,22,173,35*66
$GLGSV,3,2,09,70,17,102,25,69,11,048,,84,08,050,,71,02,147,*6C
$GLGSV,3,3,09,87,01,253,*56
$QZGSV,1,1,01,01,06,051,*57
$BDGSV,2,1,06,212,61,346,33,205,46,140,33,202,30,117,33,209,20,107,28*6B
$BDGSV,2,2,06,211,27,276,,206,19,077,*66
$GPGSA,A,3,02,05,12,20,21,25,26,29,31,,,,2.2,1.0,2.0*3E
$GNGSA,A,3,02,05,12,20,21,25,26,29,31,,,,2.2,1.0,2.0*20
$GNGSA,A,3,70,74,75,85,86,,,,,,,,2.2,1.0,2.0*2A
$QZGSA,A,3,,,,,,,,,,,,,2.2,1.0,2.0*2D
$IMGSA,A,3,,,,,,,,,,,,,2.2,1.0,2.0*22
$BDGSA,A,3,202,205,209,212,,,,,,,,,2.2,1.0,2.0*2D
$GPRMC,182546.76,A,3206.337980,N,03512.178040,E,000.0,,030416,,,A*73
$GPGGA,182547.76,3206.338325,N,03512.178784,E,1,18,0.4,653.0,M,19.0,M,,*6E
$GPGSV,3,1,11,25,78,096,40,29,58,337,36,12,41,123,42,21,35,225,34*7B
$GPGSV,3,2,11,20,34,144,38,05,31,084,40,31,31,296,27,02,20,044,34*77
$GPGSV,3,3,11,04,,,25,24,03,172,,26,02,315,*7A
$GLGSV,3,1,09,75,65,226,32,85,46,013,38,86,43,290,29,74,22,173,34*66
$GLGSV,3,2,09,70,17,102,27,69,11,048,,84,08,050,,71,02,147,*6E
$GLGSV,3,3,09,87,01,253,*56
$QZGSV,1,1,01,01,06,051,*57
$BDGSV,2,1,06,212,61,346,33,205,46,140,33,202,30,117,33,209,20,107,28*6B
$BDGSV,2,2,06,211,27,276,,206,19,077,*66
$GPGSA,A,3,02,05,12,20,21,25,26,29,31,,,,1.9,0.9,1.7*3A
$GNGSA,A,3,02,05,12,20,21,25,26,29,31,,,,1.9,0.9,1.7*24
$GNGSA,A,3,70,74,75,85,86,,,,,,,,1.9,0.9,1.7*2E
$QZGSA,A,3,,,,,,,,,,,,,1.9,0.9,1.7*29
$IMGSA,A,3,,,,,,,,,,,,,1.9,0.9,1.7*26
$BDGSA,A,3,202,205,209,212,,,,,,,,,1.9,0.9,1.7*29
$GPRMC,182547.76,A,3206.338325,N,03512.178784,E,000.0,,030416,,,A*77
$GPGGA,182549.00,3206.337995,N,03512.179493,E,1,19,0.4,653.3,M,19.0,M,,*69
$GPGSV,3,1,11,25,78,096,40,29,58,337,36,12,41,123,42,21,35,225,35*7A
$GPGSV,3,2,11,20,34,144,37,31,31,296,30,05,31,084,40,02,20,044,36*7C
$GPGSV,3,3,11,04,,,25,24,03,172,,26,02,315,*7A
$GLGSV,3,1,09,75,65,226,32,85,46,013,40,86,43,290,30,74,22,173,34*61
$GLGSV,3,2,09,70,17,102,27,69,11,048,23,84,08,050,,71,02,147,*6F
$GLGSV,3,3,09,87,01,253,*56
$QZGSV,1,1,01,01,06,051,*57
$BDGSV,2,1,06,212,61,346,35,205,46,140,33,202,30,117,33,209,20,107,28*6D
$BDGSV,2,2,06,211,27,276,,206,19,077,*66
$GPGSA,A,3,02,05,12,20,21,25,26,29,31,,,,1.9,0.9,1.6*3B
$GNGSA,A,3,02,05,12,20,21,25,26,29,31,,,,1.9,0.9,1.6*25
$GNGSA,A,3,69,70,74,75,85,86,,,,,,,1.9,0.9,1.6*20
$QZGSA,A,3,,,,,,,,,,,,,1.9,0.9,1.6*28
$IMGSA,A,3,,,,,,,,,,,,,1.9,0.9,1.6*27
$BDGSA,A,3,202,205,209,212,,,,,,,,,1.9,0.9,1.6*28
$GPRMC,182549.00,A,3206.337995,N,03512.179493,E,002.4,,030416,,,A*74
$GPGGA,182550.00,3206.337594,N,03512.180227,E,1,19,0.4,654.6,M,19.0,M,,*61
$GPGSV,3,1,11,25,78,096,40,29,58,337,36,12,41,123,41,21,35,225,35*79
$GPGSV,3,2,11,20,34,144,37,31,31,296,30,05,31,084,40,02,20,044,36*7C
$GPGSV,3,3,11,04,,,25,24,03,172,,26,02,315,*7A
$GLGSV,3,1,09,75,65,225,32,85,46,013,40,86,43,290,31,74,22,173,33*64
$GLGSV,3,2,09,70,17,102,27,69,11,048,23,84,08,050,,71,02,147,*6F
$GLGSV,3,3,09,87,01,253,*56
$QZGSV,1,1,01,01,06,051,*57
$BDGSV,2,1,06,212,61,346,36,205,46,140,33,202,30,117,33,209,20,107,29*6F
$BDGSV,2,2,06,211,27,276,,206,19,077,*66
$GPGSA,A,3,02,05,12,20,21,25,26,29,31,,,,2.1,1.0,1.8*36
$GNGSA,A,3,02,05,12,20,21,25,26,29,31,,,,2.1,1.0,1.8*28
$GNGSA,A,3,69,70,74,75,85,86,,,,,,,2.1,1.0,1.8*2D
$QZGSA,A,3,,,,,,,,,,,,,2.1,1.0,1.8*25
$IMGSA,A,3,,,,,,,,,,,,,2.1,1.0,1.8*2A
$BDGSA,A,3,202,205,209,212,,,,,,,,,2.1,1.0,1.8*25
$GPRMC,182550.00,A,3206.337594,N,03512.180227,E,002.4,,030416,,,A*7E
$GPGGA,182551.00,3206.337081,N,03512.180928,E,1,20,0.4,654.0,M,19.0,M,,*69
$GPGSV,3,1,11,25,78,096,40,29,58,337,37,12,41,123,44,21,35,225,35*7D
$GPGSV,3,2,11,20,34,144,40,31,31,296,30,05,31,084,39,02,20,044,36*72
$GPGSV,3,3,11,04,,,26,24,03,172,,26,02,315,*79
$GLGSV,3,1,09,75,65,225,31,85,46,013,39,86,43,290,31,74,22,173,35*6F
$GLGSV,3,2,09,70,17,102,30,69,11,048,23,84,08,050,20,71,02,147,*6B
$GLGSV,3,3,09,87,01,253,*56
$QZGSV,1,1,01,01,06,051,*57
$BDGSV,2,1,06,212,61,346,36,205,46,140,34,202,30,117,34,209,20,107,33*64
$BDGSV,2,2,06,211,27,276,,206,19,077,*66
$GPGSA,A,3,02,05,12,20,21,25,26,29,31,,,,1.8,0.9,1.6*3A
$GNGSA,A,3,02,05,12,20,21,25,26,29,31,,,,1.8,0.9,1.6*24
$GNGSA,A,3,69,70,74,75,84,85,86,,,,,,1.8,0.9,1.6*2D
$QZGSA,A,3,,,,,,,,,,,,,1.8,0.9,1.6*29
$IMGSA,A,3,,,,,,,,,,,,,1.8,0.9,1.6*26
$BDGSA,A,3,202,205,209,212,,,,,,,,,1.8,0.9,1.6*29
$GPRMC,182551.00,A,3206.337081,N,03512.180928,E,002.5,,030416,,,A*7B
$GPGGA,182552.00,3206.336822,N,03512.181631,E,1,21,0.4,655.2,M,19.0,M,,*6E
$GPGSV,3,1,11,25,78,096,40,29,58,337,37,12,41,123,44,21,35,225,34*7C
$GPGSV,3,2,11,20,34,144,41,31,31,296,29,05,31,084,39,02,20,044,35*78
$GPGSV,3,3,11,04,,,26,24,03,172,,26,02,315,*79
$GLGSV,3,1,09,75,65,225,31,85,46,013,39,86,43,290,31,74,22,173,37*6D
$GLGSV,3,2,09,70,17,102,34,69,11,048,24,84,08,050,27,71,02,147,*6F
$GLGSV,3,3,09,87,01,253,*56
$QZGSV,1,1,01,01,06,051,*57
$BDGSV,2,1,06,212,61,346,36,205,46,140,34,202,30,117,35,209,20,107,33*65
$BDGSV,2,2,06,211,27,276,,206,19,077,*66
$GPGSA,A,3,02,05,12,20,21,25,26,29,31,,,,1.8,0.9,1.5*39
$GNGSA,A,3,02,05,12,20,21,25,26,29,31,,,,1.8,0.9,1.5*27
$GNGSA,A,3,69,70,74,75,84,85,86,87,,,,,1.8,0.9,1.5*21
$QZGSA,A,3,,,,,,,,,,,,,1.8,0.9,1.5*2A
$IMGSA,A,3,,,,,,,,,,,,,1.8,0.9,1.5*25
$BDGSA,A,3,202,205,209,212,,,,,,,,,1.8,0.9,1.5*2A
$GPRMC,182552.00,A,3206.336822,N,03512.181631,E,000.0,131.6,030416,,,A*52
$GPGGA,182553.00,3206.336451,N,03512.182456,E,1,21,0.4,655.6,M,19.0,M,,*63
$GPGSV,3,1,11,25,78,096,39,29,58,337,37,12,41,123,43,21,35,225,34*75
$GPGSV,3,2,11,20,34,144,41,31,31,296,29,05,31,084,39,02,20,044,35*78
$GPGSV,3,3,11,04,,,26,24,03,172,,26,02,315,*79
$GLGSV,3,1,09,75,65,225,31,85,46,013,39,86,43,290,30,74,22,173,36*6D
$GLGSV,3,2,09,70,17,102,38,69,11,048,24,84,08,050,30,71,02,147,*65
$GLGSV,3,3,09,87,01,253,*56
$QZGSV,1,1,01,01,06,051,*57
$BDGSV,2,1,06,212,61,346,35,205,46,140,34,202,30,117,34,209,20,107,33*67
$BDGSV,2,2,06,211,27,276,,206,19,077,*66
$GPGSA,A,3,02,05,12,20,21,25,26,29,31,,,,1.8,0.9,1.6*3A
$GNGSA,A,3,02,05,12,20,21,25,26,29,31,,,,1.8,0.9,1.6*24
$GNGSA,A,3,69,70,74,75,84,85,86,87,,,,,1.8,0.9,1.6*22
$QZGSA,A,3,,,,,,,,,,,,,1.8,0.9,1.6*29
$IMGSA,A,3,,,,,,,,,,,,,1.8,0.9,1.6*26
$BDGSA,A,3,202,205,209,212,,,,,,,,,1.8,0.9,1.6*29
$GPRMC,182553.00,A,3206.336451,N,03512.182456,E,002.2,126.6,030416,,,A*5D
$GPGGA,182554.00,3206.336492,N,03512.183140,E,1,21,0.4,656.5,M,19.0,M,,*68
$GPGSV,3,1,11,25,78,096,39,29,58,337,36,12,41,123,42,21,35,225,33*72
$GPGSV,3,2,11,20,34,144,40,31,31,296,29,05,31,084,38,02,20,044,35*78
$GPGSV,3,3,11,04,,,25,26,02,315,,24,02,172,*7B
$GLGSV,3,1,09,75,65,225,31,85,46,013,38,86,43,290,30,74,22,173,36*6C
$GLGSV,3,2,09,70,17,102,38,69,11,048,24,84,08,050,30,71,02,147,*65
$GLGSV,3,3,09,87,01,253,*56
$QZGSV,1,1,01,01,06,051,*57
$BDGSV,2,1,06,212,61,346,35,205,46,140,33,202,30,117,34,209,20,107,32*61
$BDGSV,2,2,06,211,27,276,,206,19,077,*66
$GPGSA,A,3,02,05,12,20,21,25,26,29,31,,,,1.8,0.8,1.6*3B
$GNGSA,A,3,02,05,12,20,21,25,26,29,31,,,,1.8,0.8,1.6*25
$GNGSA,A,3,69,70,74,75,84,85,86,87,,,,,1.8,0.8,1.6*23
$QZGSA,A,3,,,,,,,,,,,,,1.8,0.8,1.6*28
$IMGSA,A,3,,,,,,,,,,,,,1.8,0.8,1.6*27
$BDGSA,A,3,202,205,209,212,,,,,,,,,1.8,0.8,1.6*28
$GPRMC,182554.00,A,3206.336492,N,03512.183140,E,000.0,126.6,030416,,,A*56
$GPGGA,182555.00,3206.336771,N,03512.183723,E,1,21,0.4,657.6,M,19.0,M,,*66
$GPGSV,3,1,11,25,78,096,39,29,58,337,38,12,41,123,42,21,35,225,33*7C
$GPGSV,3,2,11,20,34,144,39,31,31,296,28,05,31,084,38,02,20,044,37*75
$GPGSV,3,3,11,04,,,32,24,03,172,,26,02,315,*7C
$GLGSV,3,1,09,75,65,225,30,85,46,013,38,86,43,290,31,74,22,173,35*6F
$GLGSV,3,2,09,70,17,102,37,69,11,048,31,84,08,050,32,71,02,147,*6C
$GLGSV,3,3,09,87,01,253,*56
$QZGSV,1,1,01,01,06,051,*57
$BDGSV,2,1,06,212,61,346,34,205,46,140,32,202,30,117,33,209,20,107,32*66
$BDGSV,2,2,06,211,27,276,,206,19,077,*66
$GPGSA,A,3,02,05,12,20,21,25,26,29,31,,,,1.8,0.8,1.6*3B
$GNGSA,A,3,02,05,12,20,21,25,26,29,31,,,,1.8,0.8,1.6*25
$GNGSA,A,3,69,70,74,75,84,85,86,87,,,,,1.8,0.8,1.6*23
$QZGSA,A,3,,,,,,,,,,,,,1.8,0.8,1.6*28
$IMGSA,A,3,,,,,,,,,,,,,1.8,0.8,1.6*27
$BDGSA,A,3,202,205,209,212,,,,,,,,,1.8,0.8,1.6*28
$GPRMC,182555.00,A,3206.336771,N,03512.183723,E,000.0,126.6,030416,,,A*5A
$GPGGA,182556.00,3206.336855,N,03512.184277,E,1,21,0.4,656.7,M,19.0,M,,*6F
$GPGSV,3,1,11,25,78,096,39,29,58,337,38,12,41,123,41,21,35,225,34*78
$GPGSV,3,2,11,20,34,144,39,31,31,296,28,05,31,084,40,02,20,044,40*7A
$GPGSV,3,3,11,04,,,32,26,02,315,,24,02,172,*7D
$GLGSV,3,1,09,75,65,225,30,85,46,013,38,86,43,290,31,74,22,173,35*6F
$GLGSV,3,2,09,70,17,102,37,69,11,048,34,84,08,050,32,71,02,147,*69
$GLGSV,3,3,09,87,01,253,*56
$QZGSV,1,1,01,01,06,051,*57
$BDGSV,2,1,06,212,61,346,34,205,46,140,32,202,30,117,33,209,20,107,34*60
$BDGSV,2,2,06,211,27,276,,206,19,077,*66
$GPGSA,A,3,02,05,12,20,21,25,26,29,31,,,,1.7,0.9,1.4*37
$GNGSA,A,3,02,05,12,20,21,25,26,29,31,,,,1.7,0.9,1.4*29
$GNGSA,A,3,69,70,74,75,84,85,86,87,,,,,1.7,0.9,1.4*2F
$QZGSA,A,3,,,,,,,,,,,,,1.7,0.9,1.4*24
$IMGSA,A,3,,,,,,,,,,,,,1.7,0.9,1.4*2B
$BDGSA,A,3,202,205,209,212,,,,,,,,,1.7,0.9,1.4*24
$GPRMC,182556.00,A,3206.336855,N,03512.184277,E,000.0,126.6,030416,,,A*53
$GPGGA,182557.00,3206.336712,N,03512.184984,E,1,21,0.4,655.9,M,19.0,M,,*68
$GPGSV,3,1,11,25,78,096,38,29,58,337,37,12,41,123,42,21,35,225,34*75
$GPGSV,3,2,11,20,34,144,39,31,31,296,28,05,31,084,40,02,20,044,40*7A
$GPGSV,3,3,11,04,,,32,26,02,315,,24,02,172,*7D
$GLGSV,3,1,09,75,65,225,30,85,46,013,38,86,43,290,31,74,22,173,35*6F
$GLGSV,3,2,09,70,17,102,37,69,11,048,33,84,08,050,32,71,02,147,*6E
$GLGSV,3,3,09,87,01,253,*56
$QZGSV,1,1,01,01,06,051,*57
$BDGSV,2,1,06,212,61,346,34,205,46,140,32,202,30,117,33,209,20,107,34*60
$BDGSV,2,2,06,211,27,276,,206,19,077,*66
$GPGSA,A,3,02,05,12,20,21,25,26,29,31,,,,1.7,0.9,1.5*36
$GNGSA,A,3,02,05,12,20,21,25,26,29,31,,,,1.7,0.9,1.5*28
$GNGSA,A,3,69,70,74,75,84,85,86,87,,,,,1.7,0.9,1.5*2E
$QZGSA,A,3,,,,,,,,,,,,,1.7,0.9,1.5*25
$IMGSA,A,3,,,,,,,,,,,,,1.7,0.9,1.5*2A
$BDGSA,A,3,202,205,209,212,,,,,,,,,1.7,0.9,1.5*25
$GPRMC,182557.00,A,3206.336712,N,03512.184984,E,000.0,126.6,030416,,,A*59
$GPGGA,182558.00,3206.336535,N,03512.185415,E,1,21,0.4,654.8,M,19.0,M,,*64
$GPGSV,3,1,11,25,78,096,38,29,58,337,37,12,41,123,42,21,35,225,34*75
$GPGSV,3,2,11,20,34,144,39,31,31,296,28,05,31,084,40,02,20,044,39*74
$GPGSV,3,3,11,04,,,31,26,02,315,,24,02,172,*7E
$GLGSV,3,1,09,75,65,225,30,85,46,013,38,86,43,290,31,74,22,173,36*6C
$GLGSV,3,2,09,70,17,102,37,69,11,048,33,84,08,050,31,71,02,147,*6D
$GLGSV,3,3,09,87,01,253,*56
$QZGSV,1,1,01,01,06,051,*57
$BDGSV,2,1,06,212,61,346,34,205,46,140,32,202,30,117,32,209,20,107,35*60
$BDGSV,2,2,06,211,27,276,,206,19,077,*66
$GPGSA,A,3,02,05,12,20,21,25,26,29,31,,,,1.7,0.9,1.5*36
$GNGSA,A,3,02,05,12,20,21,25,26,29,31,,,,1.7,0.9,1.5*28
$GNGSA,A,3,69,70,74,75,84,85,86,87,,,,,1.7,0.9,1.5*2E
$QZGSA,A,3,,,,,,,,,,,,,1.7,0.9,1.5*25
$IMGSA,A,3,,,,,,,,,,,,,1.7,0.9,1.5*2A
$BDGSA,A,3,202,205,209,212,,,,,,,,,1.7,0.9,1.5*25
$GPRMC,182558.00,A,3206.336535,N,03512.185415,E,000.0,126.6,030416,,,A*55
$GPGGA,182559.00,3206.336325,N,03512.186010,E,1,21,0.4,654.6,M,19.0,M,,*6E
$GPGSV,3,1,11,25,78,096,38,29,58,337,37,12,41,123,41,21,35,225,34*76
$GPGSV,3,2,11,20,34,144,38,31,31,296,28,05,31,084,40,02,20,044,39*75
$GPGSV,3,3,11,04,,,30,26,02,315,,24,02,172,*7F
$GLGSV,3,1,09,75,65,225,30,85,46,013,38,86,43,290,31,74,22,173,36*6C
$GLGSV,3,2,09,70,17,102,36,69,11,048,32,84,08,050,30,71,02,147,*6C
$GLGSV,3,3,09,87,01,253,*56
$QZGSV,1,1,01,01,06,051,*57
$BDGSV,2,1,06,212,61,346,33,205,46,140,32,202,30,117,32,209,20,107,35*67
$BDGSV,2,2,06,211,27,276,,206,19,077,*66
$GPGSA,A,3,02,05,12,20,21,25,26,29,31,,,,1.8,0.9,1.6*3A
$GNGSA,A,3,02,05,12,20,21,25,26,29,31,,,,1.8,0.9,1.6*24
$GNGSA,A,3,69,70,74,75,84,85,86,87,,,,,1.8,0.9,1.6*22
$QZGSA,A,3,,,,,,,,,,,,,1.8,0.9,1.6*29
$IMGSA,A,3,,,,,,,,,,,,,1.8,0.9,1.6*26
$BDGSA,A,3,202,205,209,212,,,,,,,,,1.8,0.9,1.6*29
$GPRMC,182559.00,A,3206.336325,N,03512.186010,E,002.6,101.5,030416,,,A*53
$GPGGA,182600.00,3206.336082,N,03512.186704,E,1,21,0.4,654.2,M,19.0,M,,*69
$GPGSV,3,1,11,25,78,096,38,29,58,337,37,12,41,123,41,21,35,225,35*77
$GPGSV,3,2,11,20,34,144,38,31,31,296,29,05,31,084,40,02,20,044,38*75
$GPGSV,3,3,11,04,,,30,26,02,315,,24,02,172,*7F
$GLGSV,3,1,09,75,65,225,33,85,46,013,38,86,43,290,33,74,22,173,36*6D
$GLGSV,3,2,09,70,17,102,37,69,11,048,31,84,08,050,29,71,02,147,*66
$GLGSV,3,3,09,87,01,253,*56
$QZGSV,1,1,01,01,06,051,*57
$BDGSV,2,1,06,212,61,346,33,205,46,140,32,202,30,117,32,209,20,107,35*67
$BDGSV,2,2,06,211,27,276,,206,19,077,*66
$GPGSA,A,3,02,05,12,20,21,25,26,29,31,,,,1.8,0.9,1.6*3A
$GNGSA,A,3,02,05,12,20,21,25,26,29,31,,,,1.8,0.9,1.6*24
$GNGSA,A,3,69,70,74,75,84,85,86,87,,,,,1.8,0.9,1.6*22
$QZGSA,A,3,,,,,,,,,,,,,1.8,0.9,1.6*29
$IMGSA,A,3,,,,,,,,,,,,,1.8,0.9,1.6*26
$BDGSA,A,3,202,205,209,212,,,,,,,,,1.8,0.9,1.6*29
$GPRMC,182600.00,A,3206.336082,N,03512.186704,E,000.0,101.5,030416,,,A*54
$GPGGA,182601.00,3206.335714,N,03512.186940,E,1,22,0.4,654.2,M,19.0,M,,*6E
$GPGSV,3,1,12,25,78,096,38,29,58,337,36,12,41,123,41,21,35,225,38*78
$GPGSV,3,2,12,20,34,144,41,31,31,296,30,05,31,084,39,02,20,044,38*7E
$GPGSV,3,3,12,04,,,29,26,02,315,,24,02,172,,18,00,189,*4D
$GLGSV,3,1,09,75,65,225,33,85,46,013,37,86,43,290,37,74,22,173,37*67
$GLGSV,3,2,09,70,17,102,36,69,11,048,30,84,08,050,29,71,02,147,*66
$GLGSV,3,3,09,87,01,253,*56
$QZGSV,1,1,01,01,06,051,*57
$BDGSV,2,1,06,212,61,346,33,205,46,140,33,202,30,117,32,211,27,276,31*69
$BDGSV,2,2,06,209,20,107,35,206,19,077,*6B
$GPGSA,A,3,02,05,12,20,21,25,26,29,31,,,,1.8,0.9,1.6*3A
$GNGSA,A,3,02,05,12,20,21,25,26,29,31,,,,1.8,0.9,1.6*24
$GNGSA,A,3,69,70,74,75,84,85,86,87,,,,,1.8,0.9,1.6*22
$QZGSA,A,3,,,,,,,,,,,,,1.8,0.9,1.6*29
$IMGSA,A,3,,,,,,,,,,,,,1.8,0.9,1.6*26
$BDGSA,A,3,202,205,209,211,212,,,,,,,,1.8,0.9,1.6*1B
$GPRMC,182601.00,A,3206.335714,N,03512.186940,E,000.0,101.5,030416,,,A*50
$GPGGA,182602.00,3206.335217,N,03512.187004,E,1,21,0.4,654.0,M,19.0,M,,*62
$GPGSV,3,1,12,25,78,096,38,29,58,337,36,12,41,123,41,21,35,225,38*78
$GPGSV,3,2,12,20,34,144,41,31,31,296,31,05,31,084,39,02,20,044,37*70
$GPGSV,3,3,12,04,,,28,26,02,315,,24,02,171,,18,00,189,*4F
$GLGSV,3,1,09,75,65,225,36,85,46,013,36,86,43,290,37,74,22,173,41*62
$GLGSV,3,2,09,70,17,102,36,69,11,048,29,84,08,050,27,71,02,147,*60
$GLGSV,3,3,09,87,01,253,*56
$QZGSV,1,1,01,01,06,051,*57
$BDGSV,2,1,06,212,61,346,33,205,46,140,33,202,30,117,34,211,27,276,31*6F
$BDGSV,2,2,06,209,20,107,34,206,19,077,*6A
$GPGSA,A,3,02,05,12,20,21,25,29,31,,,,,1.7,0.9,1.4*33
$GNGSA,A,3,02,05,12,20,21,25,29,31,,,,,1.7,0.9,1.4*2D
$GNGSA,A,3,69,70,74,75,84,85,86,87,,,,,1.7,0.9,1.4*2F
$QZGSA,A,3,,,,,,,,,,,,,1.7,0.9,1.4*24
$IMGSA,A,3,,,,,,,,,,,,,1.7,0.9,1.4*2B
$BDGSA,A,3,202,205,209,211,212,,,,,,,,1.7,0.9,1.4*16
$GPRMC,182602.00,A,3206.335217,N,03512.187004,E,000.0,101.5,030416,,,A*5D
$GPGGA,182603.00,3206.335121,N,03512.186848,E,1,21,0.4,653.9,M,19.0,M,,*6A
$GPGSV,3,1,12,25,78,096,37,29,58,337,36,12,41,123,41,21,35,225,38*77
$GPGSV,3,2,12,20,34,144,44,31,31,296,30,05,31,084,38,02,20,044,37*75
$GPGSV,3,3,12,04,,,27,26,02,315,,24,02,171,,18,00,189,*40
$GLGSV,3,1,09,75,65,225,36,85,46,013,36,86,43,290,36,74,22,173,41*63
$GLGSV,3,2,09,70,17,102,35,69,11,048,28,84,08,050,26,71,02,147,*63
$GLGSV,3,3,09,87,01,253,*56
$QZGSV,1,1,01,01,06,051,*57
$BDGSV,2,1,06,212,61,346,32,205,46,140,33,202,30,117,33,211,27,276,30*68
$BDGSV,2,2,06,209,20,107,34,206,19,077,*6A
$GPGSA,A,3,02,05,12,20,21,25,29,31,,,,,1.8,0.9,1.6*3E
$GNGSA,A,3,02,05,12,20,21,25,29,31,,,,,1.8,0.9,1.6*20
$GNGSA,A,3,69,70,74,75,84,85,86,87,,,,,1.8,0.9,1.6*22
$QZGSA,A,3,,,,,,,,,,,,,1.8,0.9,1.6*29
$IMGSA,A,3,,,,,,,,,,,,,1.8,0.9,1.6*26
$BDGSA,A,3,202,205,209,211,212,,,,,,,,1.8,0.9,1.6*1B
$GPRMC,182603.00,A,3206.335121,N,03512.186848,E,000.0,101.5,030416,,,A*5B
$GPGGA,182604.00,3206.335248,N,03512.186563,E,1,20,0.4,653.4,M,19.0,M,,*69
$GPGSV,3,1,12,25,78,097,37,29,58,337,36,12,41,123,40,21,35,225,37*78
$GPGSV,3,2,12,20,34,144,44,31,31,296,30,05,31,084,38,02,20,044,36*74
$GPGSV,3,3,12,04,,,27,26,02,315,,24,02,171,,18,00,189,*40
$GLGSV,3,1,09,75,65,225,36,85,46,013,36,86,43,290,36,74,22,173,40*62
$GLGSV,3,2,09,70,17,102,34,69,11,048,27,84,08,050,24,71,02,147,*6F
$GLGSV,3,3,09,87,01,253,*56
$QZGSV,1,1,01,01,06,051,*57
$BDGSV,2,1,06,212,61,346,32,205,46,140,32,202,30,117,33,211,27,276,30*69
$BDGSV,2,2,06,209,20,107,34,206,19,077,*6A
$GPGSA,A,3,02,05,12,20,21,25,29,31,,,,,1.8,0.9,1.6*3E
$GNGSA,A,3,02,05,12,20,21,25,29,31,,,,,1.8,0.9,1.6*20
$GNGSA,A,3,69,70,74,75,85,86,87,,,,,,1.8,0.9,1.6*2E
$QZGSA,A,3,,,,,,,,,,,,,1.8,0.9,1.6*29
$IMGSA,A,3,,,,,,,,,,,,,1.8,0.9,1.6*26
$BDGSA,A,3,202,205,209,211,212,,,,,,,,1.8,0.9,1.6*1B
$GPRMC,182604.00,A,3206.335248,N,03512.186563,E,000.0,101.5,030416,,,A*54
$GPGGA,182605.00,3206.335179,N,03512.186534,E,1,20,0.4,653.4,M,19.0,M,,*6B
$GPGSV,3,1,12,25,78,097,37,29,58,337,36,12,41,123,40,21,35,225,37*78
$GPGSV,3,2,12,20,34,144,44,31,31,296,30,05,31,084,38,02,20,044,36*74
$GPGSV,3,3,12,04,,,26,26,02,315,,24,02,171,,18,00,189,*41
$GLGSV,3,1,09,75,65,225,36,85,46,013,35,86,43,290,36,74,22,173,40*61
$GLGSV,3,2,09,70,17,102,36,69,11,048,26,84,08,050,23,71,02,147,*6B
$GLGSV,3,3,09,87,01,253,*56
$QZGSV,1,1,01,01,06,051,*57
$BDGSV,2,1,06,212,61,346,32,205,46,140,32,202,30,117,33,211,27,276,30*69
$BDGSV,2,2,06,209,20,107,34,206,19,077,*6A
$GPGSA,A,3,02,05,12,20,21,25,29,31,,,,,1.6,0.8,1.4*33
$GNGSA,A,3,02,05,12,20,21,25,29,31,,,,,1.6,0.8,1.4*2D
$GNGSA,A,3,69,70,74,75,85,86,87,,,,,,1.6,0.8,1.4*23
$QZGSA,A,3,,,,,,,,,,,,,1.6,0.8,1.4*24
$IMGSA,A,3,,,,,,,,,,,,,1.6,0.8,1.4*2B
$BDGSA,A,3,202,205,209,211,212,,,,,,,,1.6,0.8,1.4*16
$GPRMC,182605.00,A,3206.335179,N,03512.186534,E,000.0,101.5,030416,,,A*56
$GPGGA,182606.00,3206.334912,N,03512.186582,E,1,21,0.4,654.0,M,19.0,M,,*63
$GPGSV,3,1,12,25,78,097,38,29,58,337,35,12,41,123,41,21,35,225,37*75
$GPGSV,3,2,12,20,34,144,43,31,31,296,33,05,31,084,38,02,20,044,37*71
$GPGSV,3,3,12,04,,,26,26,02,315,,24,02,171,,18,00,189,*41
$GLGSV,3,1,09,75,65,225,35,85,46,013,35,86,43,290,35,74,22,173,40*61
$GLGSV,3,2,09,70,17,102,36,69,11,048,26,84,08,050,23,71,02,147,*6B
$GLGSV,3,3,09,87,01,253,*56
$QZGSV,1,1,01,01,06,051,*57
$BDGSV,2,1,06,212,61,346,32,205,46,140,32,202,30,117,33,211,27,276,29*61
$BDGSV,2,2,06,209,20,107,34,206,19,077,*6A
$GPGSA,A,3,02,05,12,20,21,25,29,31,,,,,1.7,0.9,1.4*33
$GNGSA,A,3,02,05,12,20,21,25,29,31,,,,,1.7,0.9,1.4*2D
$GNGSA,A,3,69,70,74,75,84,85,86,87,,,,,1.7,0.9,1.4*2F
$QZGSA,A,3,,,,,,,,,,,,,1.7,0.9,1.4*24
$IMGSA,A,3,,,,,,,,,,,,,1.7,0.9,1.4*2B
$BDGSA,A,3,202,205,209,211,212,,,,,,,,1.7,0.9,1.4*16
$GPRMC,182606.00,A,3206.334912,N,03512.186582,E,000.0,101.5,030416,,,A*5C
$GPGGA,182607.00,3206.334903,N,03512.186599,E,1,21,0.4,654.4,M,19.0,M,,*6C
$GPGSV,3,1,12,25,78,097,38,29,58,337,35,12,41,123,41,21,35,225,37*75
$GPGSV,3,2,12,20,34,144,42,31,31,296,34,05,31,084,41,02,20,044,38*76
$GPGSV,3,3,12,04,,,26,26,02,315,,24,02,171,,18,00,189,*41
$GLGSV,3,1,09,75,65,225,35,85,46,013,35,86,43,290,35,74,22,173,39*6F
$GLGSV,3,2,09,70,17,102,36,69,11,048,25,84,08,050,22,71,02,147,*69
$GLGSV,3,3,09,87,01,253,*56
$QZGSV,1,1,01,01,06,051,*57
$BDGSV,2,1,06,212,61,346,32,205,46,140,32,202,30,117,32,211,27,276,29*60
$BDGSV,2,2,06,209,20,107,34,206,19,077,*6A
$GPGSA,A,3,02,05,12,20,21,25,29,31,,,,,1.6,0.8,1.4*33
$GNGSA,A,3,02,05,12,20,21,25,29,31,,,,,1.6,0.8,1.4*2D
$GNGSA,A,3,69,70,74,75,84,85,86,87,,,,,1.6,0.8,1.4*2F
$QZGSA,A,3,,,,,,,,,,,,,1.6,0.8,1.4*24
$IMGSA,A,3,,,,,,,,,,,,,1.6,0.8,1.4*2B
$BDGSA,A,3,202,205,209,211,212,,,,,,,,1.6,0.8,1.4*16
$GPRMC,182607.00,A,3206.334903,N,03512.186599,E,000.0,101.5,030416,,,A*57
$GPGGA,182608.00,3206.334970,N,03512.186629,E,1,21,0.4,654.7,M,19.0,M,,*6C
$GPGSV,3,1,12,25,78,097,38,29,58,337,35,12,41,123,40,21,36,225,37*77
$GPGSV,3,2,12,20,34,144,41,31,31,296,33,05,31,084,40,02,20,044,38*73
$GPGSV,3,3,12,04,,,25,26,02,315,,24,02,171,,18,00,189,*42
$GLGSV,3,1,09,75,65,225,35,85,46,013,35,86,43,290,35,74,22,173,39*6F
$GLGSV,3,2,09,70,17,102,35,69,11,048,24,84,08,050,21,71,02,147,*68
$GLGSV,3,3,09,87,01,253,*56
$QZGSV,1,1,01,01,06,051,*57
$BDGSV,2,1,06,212,61,346,31,205,46,140,32,202,30,117,31,211,27,276,29*60
$BDGSV,2,2,06,209,20,107,33,206,19,077,*6D
$GPGSA,A,3,02,05,12,20,21,25,29,31,,,,,2.0,1.0,1.7*3C
$GNGSA,A,3,02,05,12,20,21,25,29,31,,,,,2.0,1.0,1.7*22
$GNGSA,A,3,69,70,74,75,84,85,86,87,,,,,2.0,1.0,1.7*20
$QZGSA,A,3,,,,,,,,,,,,,2.0,1.0,1.7*2B
$IMGSA,A,3,,,,,,,,,,,,,2.0,1.0,1.7*24
$BDGSA,A,3,202,205,209,211,212,,,,,,,,2.0,1.0,1.7*19
$GPRMC,182608.00,A,3206.334970,N,03512.186629,E,000.0,101.5,030416,,,A*54
$GPGGA,182609.00,3206.334965,N,03512.186647,E,1,21,0.4,655.4,M,19.0,M,,*63
$GPGSV,3,1,12,25,78,097,39,29,58,337,34,12,41,123,39,21,36,225,36*78
$GPGSV,3,2,12,20,34,144,40,05,31,084,40,31,31,296,33,02,20,044,37*7D
$GPGSV,3,3,12,04,,,25,26,02,315,,24,02,171,,18,00,189,*42
$GLGSV,3,1,09,75,65,225,35,85,45,013,34,86,43,290,34,74,22,173,38*6D
$GLGSV,3,2,09,70,17,102,34,69,11,048,23,84,08,050,20,71,02,147,*6F
$GLGSV,3,3,09,87,01,253,*56
$QZGSV,1,1,01,01,06,051,*57
$BDGSV,2,1,06,212,61,346,31,205,46,140,31,202,30,117,30,211,27,276,28*63
$BDGSV,2,2,06,209,20,107,32,206,19,077,*6C
$GPGSA,A,3,02,05,12,20,21,25,29,31,,,,,1.9,0.9,1.7*3E
$GNGSA,A,3,02,05,12,20,21,25,29,31,,,,,1.9,0.9,1.7*20
$GNGSA,A,3,69,70,74,75,84,85,86,87,,,,,1.9,0.9,1.7*22
$QZGSA,A,3,,,,,,,,,,,,,1.9,0.9,1.7*29
$IMGSA,A,3,,,,,,,,,,,,,1.9,0.9,1.7*26
$BDGSA,A,3,202,205,209,211,212,,,,,,,,1.9,0.9,1.7*1B
$GPRMC,182609.00,A,3206.334965,N,03512.186647,E,000.0,101.5,030416,,,A*59
$GPGGA,182610.00,3206.334930,N,03512.186600,E,1,20,0.4,655.9,M,19.0,M,,*64
$GPGSV,3,1,12,25,78,097,39,29,58,337,34,12,41,123,39,21,36,225,36*78
$GPGSV,3,2,12,20,34,144,39,05,31,084,40,31,31,296,32,02,20,044,35*70
$GPGSV,3,3,12,04,,,25,26,02,315,,24,02,171,,18,00,189,*42
$GLGSV,3,1,09,75,65,225,35,85,45,013,34,86,43,290,34,74,22,173,37*62
$GLGSV,3,2,09,70,17,102,33,69,11,048,22,84,08,050,20,71,02,147,*69
$GLGSV,3,3,09,87,01,253,*56
$QZGSV,1,1,01,01,06,051,*57
$BDGSV,2,1,06,212,61,346,30,205,46,140,31,202,30,117,29,211,27,276,28*6A
$BDGSV,2,2,06,209,20,107,31,206,19,077,*6F
$GPGSA,A,3,02,05,12,20,21,25,29,31,,,,,1.9,0.9,1.7*3E
$GNGSA,A,3,02,05,12,20,21,25,29,31,,,,,1.9,0.9,1.7*20
$GNGSA,A,3,69,70,74,75,84,85,86,,,,,,1.9,0.9,1.7*2D
$QZGSA,A,3,,,,,,,,,,,,,1.9,0.9,1.7*29
$IMGSA,A,3,,,,,,,,,,,,,1.9,0.9,1.7*26
$BDGSA,A,3,202,205,209,211,212,,,,,,,,1.9,0.9,1.7*1B
$GPRMC,182610.00,A,3206.334930,N,03512.186600,E,000.0,101.5,030416,,,A*52
$GPGGA,182611.00,3206.335104,N,03512.186948,E,1,20,0.4,656.5,M,19.0,M,,*67
$GPGSV,3,1,12,25,78,097,39,29,58,337,33,12,41,123,38,21,36,225,35*7D
$GPGSV,3,2,12,20,34,144,38,05,31,084,39,31,31,296,31,02,20,044,34*7D
$GPGSV,3,3,12,04,,,24,26,02,315,,24,02,171,,18,00,189,*43
$GLGSV,3,1,09,75,65,225,35,85,45,013,34,86,43,290,34,74,22,173,36*63
$GLGSV,3,2,09,70,17,102,33,69,11,048,21,84,08,050,19,71,02,147,*60
$GLGSV,3,3,09,87,01,253,*56
$QZGSV,1,1,01,01,06,051,*57
$BDGSV,2,1,06,212,61,346,29,205,46,140,31,202,30,117,27,211,27,276,27*63
$BDGSV,2,2,06,209,20,107,30,206,19,077,*6E
$GPGSA,A,3,02,05,12,20,21,25,29,31,,,,,2.0,1.0,1.7*3C
$GNGSA,A,3,02,05,12,20,21,25,29,31,,,,,2.0,1.0,1.7*22
$GNGSA,A,3,69,70,74,75,84,85,86,,,,,,2.0,1.0,1.7*2F
$QZGSA,A,3,,,,,,,,,,,,,2.0,1.0,1.7*2B
$IMGSA,A,3,,,,,,,,,,,,,2.0,1.0,1.7*24
$BDGSA,A,3,202,205,209,211,212,,,,,,,,2.0,1.0,1.7*19
$GPRMC,182611.00,A,3206.335104,N,03512.186948,E,000.0,101.5,030416,,,A*5E
$GPGGA,182612.00,3206.335104,N,03512.186948,E,1,19,0.4,657.0,M,19.0,M,,*6A
$GPGSV,3,1,12,25,78,097,39,29,58,337,33,12,41,123,38,21,36,225,34*7C
$GPGSV,3,2,12,20,34,144,37,05,31,084,39,31,31,296,30,02,20,044,33*74
$GPGSV,3,3,12,04,,,24,26,02,315,,24,02,171,,18,00,189,*43
$GLGSV,3,1,09,75,65,225,35,85,45,013,33,86,43,290,34,74,22,173,35*67
$GLGSV,3,2,09,70,17,102,32,69,11,048,21,84,08,050,19,71,02,147,*61
$GLGSV,3,3,09,87,01,253,*56
$QZGSV,1,1,01,01,06,051,*57
$BDGSV,2,1,06,212,61,346,28,205,46,140,30,202,30,117,26,211,27,276,26*63
$BDGSV,2,2,06,209,20,107,28,206,19,077,*67
$GPGSA,A,3,02,05,12,20,21,25,29,31,,,,,2.0,0.9,1.8*3B
$GNGSA,A,3,02,05,12,20,21,25,29,31,,,,,2.0,0.9,1.8*25
$GNGSA,A,3,69,70,74,75,84,85,86,,,,,,2.0,0.9,1.8*28
$QZGSA,A,3,,,,,,,,,,,,,2.0,0.9,1.8*2C
$IMGSA,A,3,,,,,,,,,,,,,2.0,0.9,1.8*23
$BDGSA,A,3,205,209,211,212,,,,,,,,,2.0,0.9,1.8*2E
$GPRMC,182612.00,A,3206.335104,N,03512.186948,E,000.0,101.5,030416,,,A*5D
$GPGGA,182613.00,3206.335104,N,03512.186948,E,1,19,0.4,657.5,M,19.0,M,,*6E
$GPGSV,3,1,12,25,78,097,40,29,58,337,32,12,41,123,38,21,36,225,34*73
$GPGSV,3,2,12,20,34,144,37,31,31,296,29,05,31,084,39,02,20,044,32*7D
$GPGSV,3,3,12,04,,,24,26,02,315,,24,02,171,,18,00,189,*43
$GLGSV,3,1,09,75,65,225,35,85,45,013,33,86,43,290,34,74,22,173,34*66
$GLGSV,3,2,09,70,17,102,32,69,11,048,20,84,08,050,18,71,02,147,*61
$GLGSV,3,3,09,87,01,253,*56
$QZGSV,1,1,01,01,06,051,*57
$BDGSV,2,1,06,212,61,346,27,205,46,140,29,202,30,117,23,211,27,276,25*62
$BDGSV,2,2,06,209,20,107,27,206,19,077,*68
$GPGSA,A,3,02,05,12,20,21,25,29,31,,,,,2.0,0.9,1.8*3B
$GNGSA,A,3,02,05,12,20,21,25,29,31,,,,,2.0,0.9,1.8*25
$GNGSA,A,3,69,70,74,75,84,85,86,,,,,,2.0,0.9,1.8*28
$QZGSA,A,3,,,,,,,,,,,,,2.0,0.9,1.8*2C
$IMGSA,A,3,,,,,,,,,,,,,2.0,0.9,1.8*23
$BDGSA,A,3,205,209,211,212,,,,,,,,,2.0,0.9,1.8*2E
$GPRMC,182613.00,A,3206.335104,N,03512.186948,E,000.0,101.5,030416,,,A*5C
$GPGGA,182614.00,3206.334956,N,03512.187401,E,1,19,0.4,657.7,M,19.0,M,,*64
$GPGSV,3,1,12,25,78,097,40,29,58,338,31,12,41,123,37,21,36,225,33*77
$GPGSV,3,2,12,20,34,144,36,31,31,296,28,05,31,084,39,02,20,044,32*7D
$GPGSV,3,3,12,04,,,24,26,02,315,,24,02,171,,18,00,189,*43
$GLGSV,3,1,09,75,65,225,35,85,45,013,33,86,43,290,34,74,22,173,33*61
$GLGSV,3,2,09,70,17,102,31,69,11,048,19,84,08,050,18,71,02,147,*68
$GLGSV,3,3,09,87,01,253,*56
$QZGSV,1,1,01,01,06,051,*57
$BDGSV,2,1,06,212,61,346,26,205,46,140,29,202,30,117,19,211,27,276,25*6A
$BDGSV,2,2,06,209,20,107,26,206,19,077,*69
$GPGSA,A,3,02,05,12,20,21,25,29,31,,,,,2.0,0.9,1.8*3B
$GNGSA,A,3,02,05,12,20,21,25,29,31,,,,,2.0,0.9,1.8*25
$GNGSA,A,3,69,70,74,75,84,85,86,,,,,,2.0,0.9,1.8*28
$QZGSA,A,3,,,,,,,,,,,,,2.0,0.9,1.8*2C
$IMGSA,A,3,,,,,,,,,,,,,2.0,0.9,1.8*23
$BDGSA,A,3,205,209,211,212,,,,,,,,,2.0,0.9,1.8*2E
$GPRMC,182614.00,A,3206.334956,N,03512.187401,E,000.0,101.5,030416,,,A*54
$GPGGA,182615.00,3206.334919,N,03512.187406,E,1,18,0.4,657.7,M,19.0,M,,*68
$GPGSV,3,1,12,25,78,097,40,29,58,338,31,12,41,123,37,21,36,225,33*77
$GPGSV,3,2,12,20,34,144,35,05,31,084,39,31,31,296,28,02,20,044,31*7D
$GPGSV,3,3,12,04,,,23,26,02,315,,24,02,171,,18,00,189,*44
$GLGSV,3,1,09,75,65,225,35,85,45,013,32,86,43,290,34,74,21,173,33*63
$GLGSV,3,2,09,70,17,102,31,69,11,048,19,84,08,050,17,71,02,147,*67
$GLGSV,3,3,09,87,01,253,*56
$QZGSV,1,1,01,01,06,051,*57
$BDGSV,2,1,06,212,61,346,26,205,46,140,28,202,30,117,17,211,27,276,25*65
$BDGSV,2,2,06,209,20,107,24,206,19,077,*6B
$GPGSA,A,3,02,05,12,20,21,25,29,31,,,,,2.0,0.9,1.8*3B
$GNGSA,A,3,02,05,12,20,21,25,29,31,,,,,2.0,0.9,1.8*25
$GNGSA,A,3,69,70,74,75,84,85,86,,,,,,2.0,0.9,1.8*28
$QZGSA,A,3,,,,,,,,,,,,,2.0,0.9,1.8*2C
$IMGSA,A,3,,,,,,,,,,,,,2.0,0.9,1.8*23
$BDGSA,A,3,205,211,212,,,,,,,,,,2.0,0.9,1.8*15
$GPRMC,182615.00,A,3206.334919,N,03512.187406,E,000.1,101.5,030416,,,A*58
$GPGGA,182616.00,3206.334897,N,03512.187405,E,1,20,0.4,657.7,M,19.0,M,,*64
$GPGSV,3,1,12,25,78,097,41,29,58,338,30,12,41,123,37,21,36,225,33*77
$GPGSV,3,2,12,20,34,144,35,31,31,296,28,05,31,084,38,02,20,044,30*7D
$GPGSV,3,3,12,04,,,23,26,02,315,,24,02,171,,18,00,189,*44
$GLGSV,3,1,09,75,65,225,35,85,45,013,32,86,43,290,34,74,21,173,32*62
$GLGSV,3,2,09,70,17,102,30,69,11,048,18,84,08,050,17,71,02,147,*67
$GLGSV,3,3,09,87,01,253,*56
$QZGSV,1,1,01,01,06,051,*57
$BDGSV,2,1,06,212,61,346,25,205,46,140,28,202,30,117,15,211,27,276,25*64
$BDGSV,2,2,06,209,20,107,24,206,19,077,*6B
$GPGSA,A,3,02,05,12,20,21,25,29,31,,,,,2.1,0.9,1.9*3B
$GNGSA,A,3,02,05,12,20,21,25,29,31,,,,,2.1,0.9,1.9*25
$GNGSA,A,3,69,70,74,75,84,85,86,87,,,,,2.1,0.9,1.9*27
$QZGSA,A,3,,,,,,,,,,,,,2.1,0.9,1.9*2C
$IMGSA,A,3,,,,,,,,,,,,,2.1,0.9,1.9*23
$BDGSA,A,3,205,209,211,212,,,,,,,,,2.1,0.9,1.9*2E
$GPRMC,182616.00,A,3206.334897,N,03512.187405,E,000.1,101.5,030416,,,A*5F
$GPGGA,182617.00,3206.334851,N,03512.187393,E,1,20,0.4,657.7,M,19.0,M,,*67
$GPGSV,3,1,12,25,78,097,41,29,58,338,30,12,41,123,37,21,36,225,33*77
$GPGSV,3,2,12,20,34,144,35,05,31,084,38,31,31,296,29,02,20,044,29*74
$GPGSV,3,3,12,04,,,23,26,02,315,,24,02,171,,18,00,189,*44
$GLGSV,3,1,09,75,65,225,35,85,45,013,32,86,43,290,34,74,21,173,31*61
$GLGSV,3,2,09,70,17,102,29,69,11,048,18,84,08,050,16,71,02,147,*6E
$GLGSV,3,3,09,87,01,253,*56
$QZGSV,1,1,01,01,06,051,*57
$BDGSV,2,1,06,212,61,346,25,205,46,140,27,202,30,117,14,211,27,276,24*6B
$BDGSV,2,2,06,209,20,107,23,206,19,077,*6C
$GPGSA,A,3,02,05,12,20,21,25,26,29,31,,,,2.0,0.9,1.8*3F
$GNGSA,A,3,02,05,12,20,21,25,26,29,31,,,,2.0,0.9,1.8*21
$GNGSA,A,3,69,70,74,75,85,86,87,,,,,,2.0,0.9,1.8*2B
$QZGSA,A,3,,,,,,,,,,,,,2.0,0.9,1.8*2C
$IMGSA,A,3,,,,,,,,,,,,,2.0,0.9,1.8*23
$BDGSA,A,3,205,209,211,212,,,,,,,,,2.0,0.9,1.8*2E
$GPRMC,182617.00,A,3206.334851,N,03512.187393,E,000.1,101.5,030416,,,A*5C
$GPGGA,182618.00,3206.334808,N,03512.187362,E,1,21,0.4,657.7,M,19.0,M,,*6B
$GPGSV,3,1,12,25,78,097,41,29,58,338,31,12,41,123,36,21,36,225,33*77
$GPGSV,3,2,12,20,34,144,34,05,31,084,37,31,31,296,31,02,20,044,28*72
$GPGSV,3,3,12,04,,,23,26,02,315,,24,02,171,,18,00,189,*44
$GLGSV,3,1,09,75,65,225,34,85,45,013,32,86,43,290,35,74,21,173,31*61
$GLGSV,3,2,09,70,17,102,29,69,11,048,17,84,08,050,16,71,02,147,*61
$GLGSV,3,3,09,87,01,253,*56
$QZGSV,1,1,01,01,06,051,*57
$BDGSV,2,1,06,212,61,346,24,205,46,140,27,202,30,117,14,211,27,276,24*6A
$BDGSV,2,2,06,209,20,107,22,206,19,077,*6D
$GPGSA,A,3,02,05,12,20,21,25,29,31,,,,,2.2,0.9,2.0*32
$GNGSA,A,3,02,05,12,20,21,25,29,31,,,,,2.2,0.9,2.0*2C
$GNGSA,A,3,69,70,74,75,84,85,86,87,,,,,2.2,0.9,2.0*2E
$QZGSA,A,3,,,,,,,,,,,,,2.2,0.9,2.0*25
$IMGSA,A,3,,,,,,,,,,,,,2.2,0.9,2.0*2A
$BDGSA,A,3,202,205,209,211,212,,,,,,,,2.2,0.9,2.0*17
$GPRMC,182618.00,A,3206.334808,N,03512.187362,E,000.0,101.5,030416,,,A*50
$GPGGA,182619.00,3206.334782,N,03512.187269,E,1,22,0.4,657.7,M,19.0,M,,*6E
$GPGSV,3,1,12,25,78,097,40,29,58,338,31,12,41,123,36,21,36,225,32*77
$GPGSV,3,2,12,20,34,144,34,05,31,084,37,31,31,296,31,02,20,044,27*7D
$GPGSV,3,3,12,04,,,23,26,02,315,,24,02,171,,18,00,189,*44
$GLGSV,3,1,09,75,65,225,33,85,45,013,32,86,43,290,35,74,21,173,30*67
$GLGSV,3,2,09,70,17,102,28,69,11,048,17,84,08,050,15,71,02,147,*63
$GLGSV,3,3,09,87,01,253,*56
$QZGSV,1,1,01,01,06,051,*57
$BDGSV,2,1,06,212,61,346,23,205,46,140,27,202,30,117,17,211,27,276,23*69
$BDGSV,2,2,06,209,20,107,21,206,19,077,*6E
$GPGSA,A,3,02,05,12,20,21,25,29,31,,,,,2.2,0.9,2.0*32
$GNGSA,A,3,02,05,12,20,21,25,29,31,,,,,2.2,0.9,2.0*2C
$GNGSA,A,3,69,70,71,74,75,84,85,86,87,,,,2.2,0.9,2.0*28
$QZGSA,A,3,,,,,,,,,,,,,2.2,0.9,2.0*25
$IMGSA,A,3,,,,,,,,,,,,,2.2,0.9,2.0*2A
$BDGSA,A,3,202,205,209,211,212,,,,,,,,2.2,0.9,2.0*17
$GPRMC,182619.00,A,3206.334782,N,03512.187269,E,000.1,101.5,030416,,,A*57
$GPGGA,182620.00,3206.334699,N,03512.187204,E,1,18,0.4,657.7,M,19.0,M,,*6D
$GPGSV,3,1,12,25,78,097,40,29,58,338,31,12,41,123,36,21,36,225,32*77
$GPGSV,3,2,12,20,34,144,33,31,31,296,32,05,31,084,37,02,20,044,26*78
$GPGSV,3,3,12,04,,,23,26,02,315,,24,02,171,,18,00,189,*44
$GLGSV,3,1,09,75,65,225,33,85,45,013,32,86,43,290,35,74,21,173,30*67
$GLGSV,3,2,09,70,17,102,28,69,11,048,17,84,08,050,15,71,02,147,*63
$GLGSV,3,3,09,87,01,253,*56
$QZGSV,1,1,01,01,06,051,*57
$BDGSV,2,1,06,212,61,346,22,205,46,140,26,202,30,117,15,211,27,276,23*6B
$BDGSV,2,2,06,209,20,107,20,206,19,077,*6F
$GPGSA,A,3,02,05,12,20,21,25,29,31,,,,,2.3,1.0,2.1*3A
$GNGSA,A,3,02,05,12,20,21,25,29,31,,,,,2.3,1.0,2.1*24
$GNGSA,A,3,69,70,74,75,85,86,87,,,,,,2.3,1.0,2.1*2A
$QZGSA,A,3,,,,,,,,,,,,,2.3,1.0,2.1*2D
$IMGSA,A,3,,,,,,,,,,,,,2.3,1.0,2.1*22
$BDGSA,A,3,205,211,212,,,,,,,,,,2.3,1.0,2.1*14
$GPRMC,182620.00,A,3206.334699,N,03512.187204,E,000.2,101.5,030416,,,A*5E
$GPGGA,182621.00,3206.334387,N,03512.187208,E,1,20,0.4,657.7,M,19.0,M,,*61
$GPGSV,3,1,12,25,78,097,40,29,58,338,31,12,41,123,36,21,36,225,32*77
$GPGSV,3,2,12,20,34,144,33,31,31,296,31,05,31,084,36,02,20,044,26*7A
$GPGSV,3,3,12,04,,,22,26,02,315,,24,02,171,,18,00,189,*45
$GLGSV,3,1,09,75,65,225,32,85,45,013,31,86,43,291,35,74,21,173,33*67
$GLGSV,3,2,09,70,17,102,28,69,11,048,17,84,08,050,15,71,02,147,*63
$GLGSV,3,3,09,87,01,253,*56
$QZGSV,1,1,01,01,06,051,*57
$BDGSV,2,1,06,212,61,346,22,205,46,140,26,202,30,117,12,211,27,276,24*6B
$BDGSV,2,2,06,209,20,107,23,206,19,077,*6C
$GPGSA,A,3,02,05,12,20,21,25,29,31,,,,,2.0,0.9,1.8*3B
$GNGSA,A,3,02,05,12,20,21,25,29,31,,,,,2.0,0.9,1.8*25
$GNGSA,A,3,69,70,74,75,84,85,86,87,,,,,2.0,0.9,1.8*27
$QZGSA,A,3,,,,,,,,,,,,,2.0,0.9,1.8*2C
$IMGSA,A,3,,,,,,,,,,,,,2.0,0.9,1.8*23
$BDGSA,A,3,205,209,211,212,,,,,,,,,2.0,0.9,1.8*2E
$GPRMC,182621.00,A,3206.334387,N,03512.187208,E,000.6,174.8,030416,,,A*52
$GPGGA,182622.00,3206.333921,N,03512.187399,E,1,20,0.4,657.7,M,19.0,M,,*6A
$GPGSV,3,1,12,25,78,097,40,29,58,338,32,12,41,123,35,21,36,225,34*71
$GPGSV,3,2,12,20,34,144,33,05,31,084,36,31,31,296,31,02,20,044,26*7A
$GPGSV,3,3,12,04,,,22,26,02,315,,24,02,171,,18,00,189,*45
$GLGSV,3,1,09,75,65,225,32,85,45,013,31,86,43,291,34,74,21,173,32*67
$GLGSV,3,2,09,70,17,102,27,69,11,048,17,84,08,050,15,71,02,147,*6C
$GLGSV,3,3,09,87,01,253,*56
$QZGSV,1,1,01,01,06,051,*57
$BDGSV,2,1,06,212,61,346,23,205,46,140,28,211,27,276,26,209,20,107,23*6F
$BDGSV,2,2,06,202,30,117,09,206,19,077,*6F
$GPGSA,A,3,02,05,12,20,21,25,29,31,,,,,2.0,0.9,1.8*3B
$GNGSA,A,3,02,05,12,20,21,25,29,31,,,,,2.0,0.9,1.8*25
$GNGSA,A,3,69,70,74,75,84,85,86,87,,,,,2.0,0.9,1.8*27
$QZGSA,A,3,,,,,,,,,,,,,2.0,0.9,1.8*2C
$IMGSA,A,3,,,,,,,,,,,,,2.0,0.9,1.8*23
$BDGSA,A,3,205,209,211,212,,,,,,,,,2.0,0.9,1.8*2E
$GPRMC,182622.00,A,3206.333921,N,03512.187399,E,001.2,155.1,030416,,,A*56
$GPGGA,182623.00,3206.333577,N,03512.187728,E,1,20,0.4,657.7,M,19.0,M,,*6A
$GPGSV,3,1,12,25,78,097,39,29,58,338,31,12,41,123,35,21,36,225,35*7D
$GPGSV,3,2,12,20,34,144,32,05,31,084,36,31,31,296,30,02,20,044,26*7A
$GPGSV,3,3,12,04,,,22,26,02,315,,24,02,171,,18,00,189,*45
$GLGSV,3,1,09,75,65,225,33,85,45,013,32,86,43,291,34,74,21,173,32*65
$GLGSV,3,2,09,70,17,102,27,69,11,048,16,84,08,050,14,71,02,147,*6C
$GLGSV,3,3,09,87,01,253,*56
$QZGSV,1,1,01,01,06,051,*57
$BDGSV,2,1,06,212,61,346,23,205,46,140,29,211,27,276,27,209,20,107,24*68
$BDGSV,2,2,06,202,30,117,,206,19,077,*66
$GPGSA,A,3,02,05,12,20,21,25,29,31,,,,,2.2,0.9,2.0*32
$GNGSA,A,3,02,05,12,20,21,25,29,31,,,,,2.2,0.9,2.0*2C
$GNGSA,A,3,69,70,74,75,84,85,86,87,,,,,2.2,0.9,2.0*2E
$QZGSA,A,3,,,,,,,,,,,,,2.2,0.9,2.0*25
$IMGSA,A,3,,,,,,,,,,,,,2.2,0.9,2.0*2A
$BDGSA,A,3,205,209,211,212,,,,,,,,,2.2,0.9,2.0*27
$GPRMC,182623.00,A,3206.333577,N,03512.187728,E,001.9,129.4,030416,,,A*53
$GPGGA,182624.00,3206.332723,N,03512.188935,E,1,20,0.8,657.6,M,19.0,M,,*6F
$GPGSV,3,1,12,25,78,097,39,29,58,338,31,12,41,123,35,21,36,225,36*7E
$GPGSV,3,2,12,20,34,144,32,05,31,083,35,31,31,296,30,02,20,044,26*7E
$GPGSV,3,3,12,04,,,21,26,02,315,,24,02,171,,18,00,189,*46
$GLGSV,3,1,09,75,65,225,33,85,45,013,33,86,43,291,33,74,21,173,32*63
$GLGSV,3,2,09,70,17,102,27,69,11,048,16,84,08,050,14,71,02,147,*6C
$GLGSV,3,3,09,87,01,253,*56
$QZGSV,1,1,01,01,06,051,*57
$BDGSV,2,1,06,212,61,346,26,205,46,140,33,211,27,277,27,209,20,107,24*67
$BDGSV,2,2,06,202,30,117,,206,19,077,*66
$GPGSA,A,3,02,05,12,20,21,25,29,31,,,,,2.0,0.9,1.8*3B
$GNGSA,A,3,02,05,12,20,21,25,29,31,,,,,2.0,0.9,1.8*25
$GNGSA,A,3,69,70,74,75,84,85,86,87,,,,,2.0,0.9,1.8*27
$QZGSA,A,3,,,,,,,,,,,,,2.0,0.9,1.8*2C
$IMGSA,A,3,,,,,,,,,,,,,2.0,0.9,1.8*23
$BDGSA,A,3,205,209,211,212,,,,,,,,,2.0,0.9,1.8*2E
$GPRMC,182624.00,A,3206.332723,N,03512.188935,E,002.9,127.3,030416,,,A*51
$GPGGA,182625.00,3206.332216,N,03512.192006,E,1,20,0.8,657.6,M,19.0,M,,*6F
$GPGSV,3,1,12,25,78,097,38,29,58,338,35,12,41,123,40,21,36,225,36*79
$GPGSV,3,2,12,20,34,144,32,05,31,083,35,31,31,296,30,02,20,044,26*7E
$GPGSV,3,3,12,04,,,22,26,02,315,,24,02,171,,18,01,189,*44
$GLGSV,3,1,09,75,65,225,32,85,45,013,37,86,43,291,33,74,21,173,31*65
$GLGSV,3,2,09,70,17,102,27,69,11,048,20,84,08,050,14,71,02,147,*69
$GLGSV,3,3,09,87,01,253,*56
$QZGSV,1,1,01,01,06,051,*57
$BDGSV,2,1,06,212,61,346,30,205,46,140,33,211,27,277,26,209,20,107,24*61
$BDGSV,2,2,06,202,30,117,,206,19,077,*66
$GPGSA,A,3,02,05,12,20,21,25,29,31,,,,,2.4,0.9,2.2*36
$GNGSA,A,3,02,05,12,20,21,25,29,31,,,,,2.4,0.9,2.2*28
$GNGSA,A,3,69,70,74,75,84,85,86,87,,,,,2.4,0.9,2.2*2A
$QZGSA,A,3,,,,,,,,,,,,,2.4,0.9,2.2*21
$IMGSA,A,3,,,,,,,,,,,,,2.4,0.9,2.2*2E
$BDGSA,A,3,205,209,211,212,,,,,,,,,2.4,0.9,2.2*23
$GPRMC,182625.00,A,3206.332216,N,03512.192006,E,004.3,092.8,030416,,,A*59
$GPGGA,182626.00,3206.332553,N,03512.194972,E,1,20,0.8,657.3,M,19.0,M,,*63
$GPGSV,3,1,12,25,78,097,38,29,58,338,37,12,41,123,40,21,36,225,35*78
$GPGSV,3,2,12,20,34,144,35,05,31,083,35,31,31,296,29,02,20,044,26*71
$GPGSV,3,3,12,04,,,23,26,02,315,,24,02,171,,18,01,189,*45
$GLGSV,3,1,09,75,65,225,31,85,45,013,36,86,43,291,33,74,21,173,31*67
$GLGSV,3,2,09,70,17,102,27,69,11,048,20,84,08,050,14,71,02,147,*69
$GLGSV,3,3,09,87,01,253,*56
$QZGSV,1,1,01,01,06,051,*57
$BDGSV,2,1,06,212,61,346,32,205,46,140,33,211,27,277,26,209,20,107,24*63
$BDGSV,2,2,06,202,30,117,,206,19,077,*66
$GPGSA,A,3,02,05,12,20,21,25,29,31,,,,,2.2,0.9,2.0*32
$GNGSA,A,3,02,05,12,20,21,25,29,31,,,,,2.2,0.9,2.0*2C
$GNGSA,A,3,69,70,74,75,84,85,86,87,,,,,2.2,0.9,2.0*2E
$QZGSA,A,3,,,,,,,,,,,,,2.2,0.9,2.0*25
$IMGSA,A,3,,,,,,,,,,,,,2.2,0.9,2.0*2A
$BDGSA,A,3,205,209,211,212,,,,,,,,,2.2,0.9,2.0*27
$GPRMC,182626.00,A,3206.332553,N,03512.194972,E,005.9,082.4,030416,,,A*56
$GPGGA,182627.00,3206.332936,N,03512.198185,E,1,19,0.8,656.9,M,19.0,M,,*60
$GPGSV,3,1,12,25,78,097,38,29,58,338,39,12,41,123,39,21,36,225,35*78
$GPGSV,3,2,12,20,34,144,39,05,31,083,35,31,31,296,29,02,20,044,26*7D
$GPGSV,3,3,12,04,,,23,26,02,315,,24,02,171,,18,01,189,*45
$GLGSV,3,1,09,75,65,225,30,85,45,013,36,86,43,291,32,74,21,173,31*67
$GLGSV,3,2,09,70,17,102,30,69,11,048,20,84,08,050,14,87,02,253,*60
$GLGSV,3,3,09,71,02,147,*5A
$QZGSV,1,1,01,01,06,051,*57
$BDGSV,2,1,06,212,61,346,32,205,46,140,32,211,27,277,26,209,20,107,24*62
$BDGSV,2,2,06,202,30,117,,206,19,077,*66
$GPGSA,A,3,02,05,12,20,21,25,29,31,,,,,2.0,1.0,1.7*3C
$GNGSA,A,3,02,05,12,20,21,25,29,31,,,,,2.0,1.0,1.7*22
$GNGSA,A,3,69,70,74,75,84,85,86,,,,,,2.0,1.0,1.7*2F
$QZGSA,A,3,,,,,,,,,,,,,2.0,1.0,1.7*2B
$IMGSA,A,3,,,,,,,,,,,,,2.0,1.0,1.7*24
$BDGSA,A,3,205,209,211,212,,,,,,,,,2.0,1.0,1.7*29
$GPRMC,182627.00,A,3206.332936,N,03512.198185,E,007.3,086.0,030416,,,A*5C
$GPGGA,182628.00,3206.333222,N,03512.202260,E,1,19,0.8,656.6,M,19.0,M,,*67
$GPGSV,3,1,12,25,78,097,37,29,58,338,39,12,41,123,39,21,36,225,34*76
$GPGSV,3,2,12,20,34,144,38,05,31,083,35,31,31,296,29,02,20,044,26*7C
$GPGSV,3,3,12,04,,,23,26,02,315,,24,02,171,,18,01,189,*45
$GLGSV,3,1,09,75,65,225,30,85,45,013,35,86,43,291,32,74,21,173,32*67
$GLGSV,3,2,09,70,17,102,30,69,11,048,19,84,08,050,14,87,02,253,*6A
$GLGSV,3,3,09,71,02,147,*5A
$QZGSV,1,1,01,01,06,051,*57
$BDGSV,2,1,06,212,61,346,34,205,46,140,32,211,27,277,25,209,20,107,23*60
$BDGSV,2,2,06,202,30,117,,206,19,077,*66
$GPGSA,A,3,02,05,12,20,21,25,29,31,,,,,2.9,1.3,2.6*34
$GNGSA,A,3,02,05,12,20,21,25,29,31,,,,,2.9,1.3,2.6*2A
$GNGSA,A,3,69,70,71,74,75,85,86,,,,,,2.9,1.3,2.6*2D
$QZGSA,A,3,,,,,,,,,,,,,2.9,1.3,2.6*23
$IMGSA,A,3,,,,,,,,,,,,,2.9,1.3,2.6*2C
$BDGSA,A,3,205,209,211,212,,,,,,,,,2.9,1.3,2.6*21
$GPRMC,182628.00,A,3206.333222,N,03512.202260,E,008.4,087.9,030416,,,A*54
$GPGGA,182629.00,3206.333329,N,03512.206547,E,1,19,0.8,656.3,M,19.0,M,,*6F
$GPGSV,3,1,12,25,78,097,37,29,58,338,39,12,41,123,39,21,36,225,33*71
$GPGSV,3,2,12,20,34,144,38,05,31,083,35,31,31,296,28,02,20,044,26*7D
$GPGSV,3,3,12,04,,,23,26,02,315,,24,02,171,,18,01,189,*45
$GLGSV,3,1,09,75,65,225,29,85,45,013,34,86,43,291,31,74,21,173,32*6D
$GLGSV,3,2,09,70,17,102,29,69,11,048,19,84,08,050,13,87,02,253,*65
$GLGSV,3,3,09,71,02,147,*5A
$QZGSV,1,1,01,01,06,051,*57
$BDGSV,2,1,06,212,61,346,35,205,46,140,31,211,27,277,24,209,20,107,23*63
$BDGSV,2,2,06,202,30,117,,206,19,077,*66
$GPGSA,A,3,02,05,12,20,21,24,25,29,31,,,,2.7,1.1,2.5*3D
$GNGSA,A,3,02,05,12,20,21,24,25,29,31,,,,2.7,1.1,2.5*23
$GNGSA,A,3,69,70,74,75,85,86,,,,,,,2.7,1.1,2.5*24
$QZGSA,A,3,,,,,,,,,,,,,2.7,1.1,2.5*2C
$IMGSA,A,3,,,,,,,,,,,,,2.7,1.1,2.5*23
$BDGSA,A,3,205,209,211,212,,,,,,,,,2.7,1.1,2.5*2E
$GPRMC,182629.00,A,3206.333329,N,03512.206547,E,009.1,089.2,030416,,,A*58
$GPGGA,182630.00,3206.333402,N,03512.211231,E,1,18,0.8,656.1,M,19.0,M,,*6A
$GPGSV,3,1,12,25,78,097,36,29,58,338,39,12,41,123,38,21,36,225,33*71
$GPGSV,3,2,12,20,34,144,38,05,31,083,35,31,31,296,28,02,20,044,25*7E
$GPGSV,3,3,12,04,,,24,26,02,315,,24,02,171,,18,01,189,*42
$GLGSV,3,1,09,75,65,225,28,85,45,013,33,86,43,291,31,74,21,173,34*6D
$GLGSV,3,2,09,70,17,102,29,69,11,048,18,84,08,050,13,87,02,253,*64
$GLGSV,3,3,09,71,02,147,*5A
$QZGSV,1,1,01,01,06,051,*57
$BDGSV,2,1,06,212,61,346,36,205,46,140,30,211,27,277,23,209,20,107,22*67
$BDGSV,2,2,06,202,30,117,,206,19,077,*66
$GPGSA,A,3,02,05,12,20,21,25,29,31,,,,,2.4,1.1,2.2*3F
$GNGSA,A,3,02,05,12,20,21,25,29,31,,,,,2.4,1.1,2.2*21
$GNGSA,A,3,69,70,74,75,85,86,,,,,,,2.4,1.1,2.2*20
$QZGSA,A,3,,,,,,,,,,,,,2.4,1.1,2.2*28
$IMGSA,A,3,,,,,,,,,,,,,2.4,1.1,2.2*27
$BDGSA,A,3,205,209,211,212,,,,,,,,,2.4,1.1,2.2*2A
$GPRMC,182630.00,A,3206.333402,N,03512.211231,E,009.7,088.3,030416,,,A*58
$GPGGA,182631.00,3206.333503,N,03512.216121,E,1,18,0.6,655.9,M,19.0,M,,*6B
$GPGSV,3,1,12,25,78,098,36,29,58,338,38,12,41,123,38,21,36,225,33*7F
$GPGSV,3,2,12,20,34,144,38,05,31,083,35,31,31,296,29,02,20,044,25*7F
$GPGSV,3,3,12,04,,,24,26,02,315,,24,02,171,,18,01,189,*42
$GLGSV,3,1,09,75,65,225,27,85,45,013,33,86,43,291,30,74,21,173,34*63
$GLGSV,3,2,09,70,17,102,29,69,11,048,18,84,08,050,13,87,02,253,*64
$GLGSV,3,3,09,71,02,147,*5A
$QZGSV,1,1,01,01,06,051,*57
$BDGSV,2,1,06,212,61,346,36,205,46,140,29,211,27,277,22,209,20,107,22*6E
$BDGSV,2,2,06,202,30,117,,206,19,077,*66
$GPGSA,A,3,02,05,12,20,21,25,29,31,,,,,2.3,1.0,2.1*3A
$GNGSA,A,3,02,05,12,20,21,25,29,31,,,,,2.3,1.0,2.1*24
$GNGSA,A,3,69,70,74,75,85,86,,,,,,,2.3,1.0,2.1*25
$QZGSA,A,3,,,,,,,,,,,,,2.3,1.0,2.1*2D
$IMGSA,A,3,,,,,,,,,,,,,2.3,1.0,2.1*22
$BDGSA,A,3,205,209,211,212,,,,,,,,,2.3,1.0,2.1*2F
$GPRMC,182631.00,A,3206.333503,N,03512.216121,E,014.8,088.2,030416,,,A*5E
$GPGGA,182632.00,3206.333604,N,03512.221349,E,1,19,0.6,655.8,M,19.0,M,,*64
$GPGSV,3,1,12,25,78,098,35,29,58,338,38,12,41,123,38,21,36,225,33*7C
$GPGSV,3,2,12,20,34,144,37,05,32,083,35,31,31,296,30,02,20,044,24*7A
$GPGSV,3,3,12,04,,,23,26,02,315,,24,02,171,,18,01,189,*45
$GLGSV,3,1,09,75,65,225,26,85,45,013,33,86,43,291,30,74,21,173,33*65
$GLGSV,3,2,09,70,17,102,28,69,11,048,17,84,08,050,12,87,02,253,*6B
$GLGSV,3,3,09,71,02,147,*5A
$QZGSV,1,1,01,01,06,051,*57
$BDGSV,2,1,06,212,61,346,36,205,46,140,28,211,27,277,21,209,20,107,22*6C
$BDGSV,2,2,06,202,30,117,,206,19,077,*66
$GPGSA,A,3,02,05,12,20,21,25,29,31,,,,,2.2,1.0,2.0*3A
$GNGSA,A,3,02,05,12,20,21,25,29,31,,,,,2.2,1.0,2.0*24
$GNGSA,A,3,69,70,71,74,75,85,86,,,,,,2.2,1.0,2.0*23
$QZGSA,A,3,,,,,,,,,,,,,2.2,1.0,2.0*2D
$IMGSA,A,3,,,,,,,,,,,,,2.2,1.0,2.0*22
$BDGSA,A,3,205,209,211,212,,,,,,,,,2.2,1.0,2.0*2F
$GPRMC,182632.00,A,3206.333604,N,03512.221349,E,014.9,087.2,030416,,,A*5F
$GPGGA,182633.00,3206.333692,N,03512.226263,E,1,18,0.6,655.5,M,19.0,M,,*68
$GPGSV,3,1,12,25,78,098,35,29,58,338,39,12,41,123,37,21,36,225,32*73
$GPGSV,3,2,12,20,34,144,37,05,32,083,35,31,31,296,30,02,20,044,26*78
$GPGSV,3,3,12,04,,,23,26,02,315,,24,02,171,,18,01,189,*45
$GLGSV,3,1,09,75,65,225,26,85,45,013,32,86,43,291,32,74,21,173,33*66
$GLGSV,3,2,09,70,17,102,28,69,11,048,18,84,08,050,12,87,02,253,*64
$GLGSV,3,3,09,71,02,147,*5A
$QZGSV,1,1,01,01,06,051,*57
$BDGSV,2,1,06,212,61,346,36,205,46,140,28,211,27,277,21,209,20,107,22*6C
$BDGSV,2,2,06,202,30,117,,206,19,077,*66
$GPGSA,A,3,02,05,12,20,21,25,29,31,,,,,2.0,0.9,1.8*3B
$GNGSA,A,3,02,05,12,20,21,25,29,31,,,,,2.0,0.9,1.8*25
$GNGSA,A,3,69,70,74,75,85,86,,,,,,,2.0,0.9,1.8*24
$QZGSA,A,3,,,,,,,,,,,,,2.0,0.9,1.8*2C
$IMGSA,A,3,,,,,,,,,,,,,2.0,0.9,1.8*23
$BDGSA,A,3,205,209,211,212,,,,,,,,,2.0,0.9,1.8*2E
$GPRMC,182633.00,A,3206.333692,N,03512.226263,E,015.4,087.6,030416,,,A*57
$GPGGA,182634.00,3206.333851,N,03512.230818,E,1,18,0.6,655.0,M,19.0,M,,*6A
$GPGSV,3,1,12,25,78,098,35,29,58,338,42,12,41,123,37,21,36,225,32*7F
$GPGSV,3,2,12,20,34,144,37,05,32,083,35,31,31,296,30,02,20,044,26*78
$GPGSV,3,3,12,04,,,22,26,02,315,,24,02,171,,18,01,189,*44
$GLGSV,3,1,09,75,65,225,25,85,45,013,34,86,43,291,32,74,21,173,32*62
$GLGSV,3,2,09,70,17,102,28,69,11,048,18,84,08,050,12,87,02,253,*64
$GLGSV,3,3,09,71,02,147,*5A
$QZGSV,1,1,01,01,06,051,*57
$BDGSV,2,1,06,212,61,346,37,205,46,140,28,211,27,277,22,209,20,107,22*6E
$BDGSV,2,2,06,202,30,117,,206,19,077,*66
$GPGSA,A,3,02,05,12,20,21,25,29,31,,,,,2.0,0.9,1.8*3B
$GNGSA,A,3,02,05,12,20,21,25,29,31,,,,,2.0,0.9,1.8*25
$GNGSA,A,3,69,70,74,75,85,86,,,,,,,2.0,0.9,1.8*24
$QZGSA,A,3,,,,,,,,,,,,,2.0,0.9,1.8*2C
$IMGSA,A,3,,,,,,,,,,,,,2.0,0.9,1.8*23
$BDGSA,A,3,205,209,211,212,,,,,,,,,2.0,0.9,1.8*2E
$GPRMC,182634.00,A,3206.333851,N,03512.230818,E,011.9,088.5,030416,,,A*55
$GPGGA,182635.00,3206.333978,N,03512.233513,E,1,18,0.6,655.0,M,19.0,M,,*64
$GPGSV,3,1,12,25,78,098,36,29,58,338,41,12,41,123,38,21,36,225,32*70
$GPGSV,3,2,12,20,34,144,36,05,32,083,35,31,31,296,30,02,20,044,28*77
$GPGSV,3,3,12,04,,,22,26,02,315,,24,02,171,,18,01,189,*44
$GLGSV,3,1,09,75,65,225,25,85,45,013,34,86,43,291,32,74,21,173,31*61
$GLGSV,3,2,09,70,17,102,27,69,11,048,17,84,08,050,12,87,02,253,*64
$GLGSV,3,3,09,71,02,147,*5A
$QZGSV,1,1,01,01,06,051,*57
$BDGSV,2,1,06,212,61,346,38,205,46,140,28,211,27,277,21,209,20,107,22*62
$BDGSV,2,2,06,202,30,117,,206,19,077,*66
$GPGSA,A,3,02,05,12,20,21,25,29,31,,,,,2.2,1.0,2.0*3A
$GNGSA,A,3,02,05,12,20,21,25,29,31,,,,,2.2,1.0,2.0*24
$GNGSA,A,3,69,70,74,75,85,86,,,,,,,2.2,1.0,2.0*25
$QZGSA,A,3,,,,,,,,,,,,,2.2,1.0,2.0*2D
$IMGSA,A,3,,,,,,,,,,,,,2.2,1.0,2.0*22
$BDGSA,A,3,205,209,211,212,,,,,,,,,2.2,1.0,2.0*2F
$GPRMC,182635.00,A,3206.333978,N,03512.233513,E,004.0,089.7,030416,,,A*55
$GPGGA,182636.00,3206.333978,N,03512.233513,E,1,18,0.4,655.0,M,19.0,M,,*65
$GPGSV,3,1,12,25,78,098,35,29,58,338,41,12,41,123,38,21,36,225,32*73
$GPGSV,3,2,12,20,34,144,35,05,32,083,35,31,31,296,30,02,20,044,29*75
$GPGSV,3,3,12,04,,,21,26,02,315,,24,02,171,,18,01,189,*47
$GLGSV,3,1,09,75,65,225,25,85,45,013,35,86,43,291,32,74,21,173,30*61
$GLGSV,3,2,09,70,17,102,27,69,11,048,17,84,08,050,11,87,02,253,*67
$GLGSV,3,3,09,71,02,147,*5A
$QZGSV,1,1,01,01,06,051,*57
$BDGSV,2,1,06,212,61,346,38,205,46,140,28,211,27,277,21,209,20,107,23*63
$BDGSV,2,2,06,202,30,117,,206,19,077,*66
$GPGSA,A,3,02,05,12,20,21,25,29,31,,,,,1.9,0.9,1.6*3F
$GNGSA,A,3,02,05,12,20,21,25,29,31,,,,,1.9,0.9,1.6*21
$GNGSA,A,3,69,70,74,75,85,86,,,,,,,1.9,0.9,1.6*20
$QZGSA,A,3,,,,,,,,,,,,,1.9,0.9,1.6*28
$IMGSA,A,3,,,,,,,,,,,,,1.9,0.9,1.6*27
$BDGSA,A,3,205,209,211,212,,,,,,,,,1.9,0.9,1.6*2A
$GPRMC,182636.00,A,3206.333978,N,03512.233513,E,000.0,089.7,030416,,,A*52
$GPGGA,182637.00,3206.333978,N,03512.233513,E,1,18,0.4,655.0,M,19.0,M,,*64
$GPGSV,3,1,12,25,78,098,37,29,58,338,42,12,41,123,38,21,36,225,32*72
$GPGSV,3,2,12,20,34,144,34,05,32,083,35,31,31,296,29,02,20,044,29*7C
$GPGSV,3,3,12,04,,,20,26,02,315,,24,02,171,,18,01,189,*46
$GLGSV,3,1,09,75,65,225,24,85,45,013,35,86,43,291,32,74,21,173,29*68
$GLGSV,3,2,09,70,17,102,26,69,11,048,17,84,08,050,11,87,02,253,*66
$GLGSV,3,3,09,71,02,147,*5A
$QZGSV,1,1,01,01,06,051,*57
$BDGSV,2,1,06,212,61,346,38,205,46,140,28,211,27,277,20,209,20,107,23*62
$BDGSV,2,2,06,202,30,117,,206,19,077,*66
$GPGSA,A,3,02,05,12,20,21,25,29,31,,,,,2.4,1.0,2.2*3E
$GNGSA,A,3,02,05,12,20,21,25,29,31,,,,,2.4,1.0,2.2*20
$GNGSA,A,3,69,70,74,75,85,86,,,,,,,2.4,1.0,2.2*21
$QZGSA,A,3,,,,,,,,,,,,,2.4,1.0,2.2*29
$IMGSA,A,3,,,,,,,,,,,,,2.4,1.0,2.2*26
$BDGSA,A,3,205,209,211,212,,,,,,,,,2.4,1.0,2.2*2B
$GPRMC,182637.00,A,3206.333978,N,03512.233513,E,000.0,089.7,030416,,,A*53
$GPGGA,182638.00,3206.333978,N,03512.233513,E,1,18,0.6,655.0,M,19.0,M,,*69
$GPGSV,3,1,12,25,78,098,37,29,58,338,42,12,41,123,40,21,36,225,32*7D
$GPGSV,3,2,12,20,34,144,34,05,32,083,36,31,31,296,31,02,20,044,29*76
$GPGSV,3,3,12,04,,,19,26,02,315,,24,02,171,,18,01,189,*4C
$GLGSV,3,1,09,75,65,225,24,85,45,013,35,86,43,291,33,74,21,173,28*68
$GLGSV,3,2,09,70,17,102,26,69,11,048,18,84,08,050,11,87,02,253,*69
$GLGSV,3,3,09,71,02,147,*5A
$QZGSV,1,1,01,01,06,051,*57
$BDGSV,2,1,06,212,61,346,38,205,46,140,28,211,27,277,20,209,20,107,24*65
$BDGSV,2,2,06,202,30,117,,206,19,077,*66
$GPGSA,A,3,02,05,12,20,21,25,29,31,,,,,2.3,1.0,2.1*3A
$GNGSA,A,3,02,05,12,20,21,25,29,31,,,,,2.3,1.0,2.1*24
$GNGSA,A,3,69,70,74,75,85,86,,,,,,,2.3,1.0,2.1*25
$QZGSA,A,3,,,,,,,,,,,,,2.3,1.0,2.1*2D
$IMGSA,A,3,,,,,,,,,,,,,2.3,1.0,2.1*22
$BDGSA,A,3,205,209,211,212,,,,,,,,,2.3,1.0,2.1*2F
$GPRMC,182638.00,A,3206.333978,N,03512.233513,E,000.0,089.7,030416,,,A*5C
$GPGGA,182639.00,3206.333871,N,03512.234818,E,1,19,0.4,655.0,M,19.0,M,,*62
$GPGSV,3,1,12,25,78,098,37,29,58,338,42,12,41,123,40,21,36,225,33*7C
$GPGSV,3,2,12,20,34,144,33,05,32,083,36,31,31,296,32,02,20,044,31*7B
$GPGSV,3,3,12,04,,,18,26,02,315,,24,02,171,,18,01,189,*4D
$GLGSV,3,1,09,75,65,225,24,85,45,013,35,86,43,291,33,74,21,173,28*68
$GLGSV,3,2,09,70,17,102,25,69,11,048,18,84,08,050,11,87,02,253,*6A
$GLGSV,3,3,09,71,02,147,*5A
$QZGSV,1,1,01,01,06,051,*57
$BDGSV,2,1,06,212,61,346,38,205,46,140,28,211,27,277,19,209,20,107,24*6F
$BDGSV,2,2,06,202,30,117,,206,19,077,*66
$GPGSA,A,3,02,05,12,20,21,24,25,29,31,,,,1.9,0.9,1.7*38
$GNGSA,A,3,02,05,12,20,21,24,25,29,31,,,,1.9,0.9,1.7*26
$GNGSA,A,3,69,70,74,75,85,86,,,,,,,1.9,0.9,1.7*21
$QZGSA,A,3,,,,,,,,,,,,,1.9,0.9,1.7*29
$IMGSA,A,3,,,,,,,,,,,,,1.9,0.9,1.7*26
$BDGSA,A,3,205,209,211,212,,,,,,,,,1.9,0.9,1.7*2B
$GPRMC,182639.00,A,3206.333871,N,03512.234818,E,002.4,092.6,030416,,,A*59
$GPGGA,182640.00,3206.333875,N,03512.236134,E,1,18,0.4,654.9,M,19.0,M,,*64
$GPGSV,3,1,12,25,78,098,38,29,58,338,43,12,41,123,40,21,36,225,33*72
$GPGSV,3,2,12,20,34,144,33,05,32,083,36,31,31,296,33,02,20,044,31*7A
$GPGSV,3,3,12,04,,,20,26,02,315,,24,02,171,,18,01,189,*46
$GLGSV,3,1,09,75,65,225,24,85,45,013,35,86,43,291,33,74,21,173,27*67
$GLGSV,3,2,09,70,17,102,24,69,11,048,18,84,08,050,11,71,03,147,*65
$GLGSV,3,3,09,87,02,253,*55
$QZGSV,1,1,01,01,06,051,*57
$BDGSV,2,1,06,212,61,346,38,205,46,140,28,211,27,277,19,209,20,107,23*68
$BDGSV,2,2,06,202,30,117,,206,19,077,*66
$GPGSA,A,3,02,05,12,20,21,25,29,31,,,,,1.9,0.9,1.7*3E
$GNGSA,A,3,02,05,12,20,21,25,29,31,,,,,1.9,0.9,1.7*20
$GNGSA,A,3,69,70,74,75,85,86,,,,,,,1.9,0.9,1.7*21
$QZGSA,A,3,,,,,,,,,,,,,1.9,0.9,1.7*29
$IMGSA,A,3,,,,,,,,,,,,,1.9,0.9,1.7*26
$BDGSA,A,3,205,209,211,212,,,,,,,,,1.9,0.9,1.7*2B
$GPRMC,182640.00,A,3206.333875,N,03512.236134,E,005.7,092.1,030416,,,A*55
$GPGGA,182641.00,3206.333874,N,03512.238264,E,1,18,0.4,654.8,M,19.0,M,,*6D
$GPGSV,3,1,12,25,78,098,38,29,58,338,43,12,41,123,39,21,36,225,32*7D
$GPGSV,3,2,12,20,34,144,32,05,32,083,35,31,31,296,35,02,20,044,31*7E
$GPGSV,3,3,12,04,,,21,26,02,315,,24,02,171,,18,01,189,*47
$GLGSV,3,1,09,75,65,225,23,85,45,013,35,86,43,291,34,74,21,173,27*67
$GLGSV,3,2,09,70,17,102,24,69,11,048,18,84,08,050,12,71,03,147,*66
$GLGSV,3,3,09,87,02,253,*55
$QZGSV,1,1,01,01,06,051,*57
$BDGSV,2,1,06,212,61,346,38,205,46,140,28,211,27,277,19,209,20,107,23*68
$BDGSV,2,2,06,202,30,117,,206,19,077,*66
$GPGSA,A,3,02,05,12,20,21,25,29,31,,,,,1.8,0.8,1.6*3F
$GNGSA,A,3,02,05,12,20,21,25,29,31,,,,,1.8,0.8,1.6*21
$GNGSA,A,3,69,70,74,75,85,86,,,,,,,1.8,0.8,1.6*20
$QZGSA,A,3,,,,,,,,,,,,,1.8,0.8,1.6*28
$IMGSA,A,3,,,,,,,,,,,,,1.8,0.8,1.6*27
$BDGSA,A,3,205,209,211,212,,,,,,,,,1.8,0.8,1.6*2A
$GPRMC,182641.00,A,3206.333874,N,03512.238264,E,008.8,090.5,030416,,,A*59
$GPGGA,182642.00,3206.333864,N,03512.240946,E,1,18,0.4,654.6,M,19.0,M,,*65
$GPGSV,3,1,12,25,78,098,38,29,58,338,43,12,41,123,39,21,36,225,32*7D
$GPGSV,3,2,12,20,34,144,32,05,32,083,35,31,31,296,35,02,20,044,30*7F
$GPGSV,3,3,12,04,,,21,26,02,315,,24,02,171,,18,01,189,*47
$GLGSV,3,1,09,75,65,225,23,85,45,013,35,86,43,291,33,74,21,173,27*60
$GLGSV,3,2,09,70,17,102,23,69,11,048,17,84,08,051,12,71,03,147,*6F
$GLGSV,3,3,09,87,02,253,*55
$QZGSV,1,1,01,01,06,051,*57
$BDGSV,2,1,06,212,61,346,38,205,46,140,28,211,27,277,19,209,20,107,22*69
$BDGSV,2,2,06,202,30,117,,206,19,077,*66
$GPGSA,A,3,02,05,12,20,21,25,29,31,,,,,1.8,0.8,1.6*3F
$GNGSA,A,3,02,05,12,20,21,25,29,31,,,,,1.8,0.8,1.6*21
$GNGSA,A,3,69,70,74,75,85,86,,,,,,,1.8,0.8,1.6*20
$QZGSA,A,3,,,,,,,,,,,,,1.8,0.8,1.6*28
$IMGSA,A,3,,,,,,,,,,,,,1.8,0.8,1.6*27
$BDGSA,A,3,205,209,211,212,,,,,,,,,1.8,0.8,1.6*2A
$GPRMC,182642.00,A,3206.333864,N,03512.240946,E,010.3,089.6,030416,,,A*56
$GPGGA,182643.00,3206.333863,N,03512.244318,E,1,18,0.6,654.2,M,19.0,M,,*60
$GPGSV,3,1,12,25,78,098,38,29,58,338,43,12,41,123,39,21,36,225,33*7C
$GPGSV,3,2,12,20,34,144,31,05,32,083,35,31,31,296,34,02,20,044,30*7D
$GPGSV,3,3,12,04,,,20,26,02,315,,24,02,171,,18,01,189,*46
$GLGSV,3,1,09,75,65,225,24,85,45,013,37,86,43,291,33,74,21,173,27*65
$GLGSV,3,2,09,70,17,102,23,69,11,048,17,84,08,051,12,71,03,147,*6F
$GLGSV,3,3,09,87,02,253,*55
$QZGSV,1,1,01,01,06,051,*57
$BDGSV,2,1,06,212,61,346,38,205,46,140,28,211,27,277,19,209,20,107,22*69
$BDGSV,2,2,06,202,30,117,,206,19,077,*66
$GPGSA,A,3,02,05,12,20,21,25,29,31,,,,,2.4,1.0,2.2*3E
$GNGSA,A,3,02,05,12,20,21,25,29,31,,,,,2.4,1.0,2.2*20
$GNGSA,A,3,69,70,74,75,85,86,,,,,,,2.4,1.0,2.2*21
$QZGSA,A,3,,,,,,,,,,,,,2.4,1.0,2.2*29
$IMGSA,A,3,,,,,,,,,,,,,2.4,1.0,2.2*26
$BDGSA,A,3,205,209,211,212,,,,,,,,,2.4,1.0,2.2*2B
$GPRMC,182643.00,A,3206.333863,N,03512.244318,E,011.3,090.4,030416,,,A*5E
$GPGGA,182644.00,3206.333847,N,03512.248110,E,1,19,0.6,654.0,M,19.0,M,,*64
$GPGSV,3,1,12,25,78,098,38,29,58,338,43,12,41,123,39,21,36,225,32*7D
$GPGSV,3,2,12,20,34,144,31,05,32,083,35,31,31,296,34,02,20,044,30*7D
$GPGSV,3,3,12,04,,,24,26,02,315,,24,02,171,,18,01,189,*42
$GLGSV,3,1,09,75,65,225,25,85,45,013,37,86,43,291,34,74,21,173,28*6C
$GLGSV,3,2,09,70,17,102,22,69,11,048,16,84,08,051,11,71,03,147,*6C
$GLGSV,3,3,09,87,02,253,*55
$QZGSV,1,1,01,01,06,051,*57
